id,nom_estab,raz_social,codigo_act,nombre_act,per_ocu,nom_vial,nom_v_e_1,numero_ext,cod_postal,cve_ent,entidad,cve_mun,municipio,cve_loc,localidad,ageb,manzana,latitud,longitud,fecha_alta,telefono,correoelec,www,PADO_geo,location_match,name_match,reason_for_checking,RA,Pharmacy,PADO,Chain,NO GSV,Permanently_closed,Note,GSV DATE
444003,FARMACIA CRISFER,,464111,Farmacias sin minisúper,0 a 5 personas,MATAMOROS PONIENTE,CARLOS CASUGA OSAKA,0,30590,7,Chiapas,1,Acacoyagua,1,Acacoyagua,71,64,15.33614645,-92.67735376,2014-12,9181514696,,,FALSE,FALSE,FALSE,No GSV within radius,Jorge,,,,,,,
503734,FARMACIA SIMILARES BETHEL,,464111,Farmacias sin minisúper,0 a 5 personas,CENTRAL MIGUEL HIDALGO NORTE,YUCATAN ORIENTE,0,30590,7,Chiapas,1,Acacoyagua,1,Acacoyagua,67,8,15.34341788,-92.67415322,2010-07,9181000256,,,FALSE,FALSE,FALSE,No GSV within radius,Oscar ,TRUE,FALSE,,,,,
503738,FARMACIA SIMILARES BETHEL,,464111,Farmacias sin minisúper,0 a 5 personas,CENTRAL MIGUEL HIDALGO NORTE,YUCATAN PONIENTE,0,30590,7,Chiapas,1,Acacoyagua,1,Acacoyagua,67,35,15.34359859,-92.67415968,2010-07,,,,FALSE,FALSE,FALSE,No GSV within radius,Oscar ,TRUE,FALSE,,,,,
503804,FARMACIA CENTRAL,,464111,Farmacias sin minisúper,0 a 5 personas,INSURGENTES SUR,JARDINES PONIENTE,,30590,7,Chiapas,1,Acacoyagua,1,Acacoyagua,67,17,15.34139516,-92.67538519,2010-07,9186474185,,,FALSE,TRUE,FALSE,No GSV within radius,Oscar ,TRUE,FALSE,,,,,
503830,FARMACIA LA ESPERANZA,,464111,Farmacias sin minisúper,0 a 5 personas,CENTRAL CHIAPAS PONIENTE,INSURGENTES SUR,0,30590,7,Chiapas,1,Acacoyagua,1,Acacoyagua,71,19,15.34050227,-92.67580741,2010-07,,,,FALSE,FALSE,FALSE,No GSV within radius,Oscar ,TRUE,FALSE,,,,,
503833,FARMACIA LA MERCED,,464111,Farmacias sin minisúper,0 a 5 personas,INSURGENTES SUR,DURANGO PONIENTE,,30590,7,Chiapas,1,Acacoyagua,1,Acacoyagua,71,19,15.33997012,-92.67551796,2010-07,,,,FALSE,FALSE,FALSE,No GSV within radius,Oscar ,TRUE,FALSE,,,,,
503859,FARMACIA DEL CARMEN,,464111,Farmacias sin minisúper,0 a 5 personas,INSURGENTES SUR,DURANGO PONIENTE,0,30590,7,Chiapas,1,Acacoyagua,1,Acacoyagua,71,18,15.33930697,-92.67558103,2010-07,9181056893,CELMIRAHORITAANTONIO@GMAIL.COM,,FALSE,FALSE,FALSE,No GSV within radius,Oscar ,TRUE,FALSE,,,,,
504185,FARMACIA GER,,464111,Farmacias sin minisúper,0 a 5 personas,VICENTE GUERRERO NORTE,COSTERA,0,30590,7,Chiapas,1,Acacoyagua,1,Acacoyagua,52,16,15.34254788,-92.67764899,2010-07,9621429648,,,TRUE,FALSE,FALSE,No GSV within radius,Oscar ,TRUE,TRUE,INDEPENDENT,,,,
8116065,FARMACIA SIMILARES DE ACACOYAGUA,,464111,Farmacias sin minisúper,0 a 5 personas,CENTRAL MIGUEL HIDALGO NORTE,NUEVO LEON ORIENTE,0,30590,7,Chiapas,1,Acacoyagua,1,Acacoyagua,67,21,15.3446035,-92.6736556,2019-11,,,,FALSE,FALSE,FALSE,No GSV within radius,Oscar ,TRUE,FALSE,,,,"MARKED IN GSV, FARMACIA ACACOYAGUA",
8116358,FARMACIA SIMILARES FENIX,,464111,Farmacias sin minisúper,0 a 5 personas,CENTRAL CHIAPAS PONIENTE,INSURGENTES SUR,0,30590,7,Chiapas,1,Acacoyagua,1,Acacoyagua,71,19,15.34048921,-92.67574326,2019-11,9181157488,EVERSOTO@HOTMAIL.COM,,FALSE,FALSE,FALSE,No GSV within radius,Oscar ,TRUE,TRUE,INDEPENDENT,,,,
8116407,FARMACIA EBEN EZER,,464111,Farmacias sin minisúper,0 a 5 personas,CARLOS CASUGA OSAKA,SINALOA PONIENTE,5,30590,7,Chiapas,1,Acacoyagua,1,Acacoyagua,71,61,15.33812121,-92.67736065,2019-11,,,,FALSE,FALSE,FALSE,No GSV within radius,Oscar ,TRUE,FALSE,,,,,
9110341,FARMACIA SIMILARES DE ACACOYAGUA,,464111,Farmacias sin minisúper,0 a 5 personas,CENTRAL MIGUEL HIDALGO NORTE,COSTERA,,30590,7,Chiapas,1,Acacoyagua,1,Acacoyagua,67,6,15.34246566,-92.67463518,2019-11,,,,FALSE,TRUE,FALSE,No GSV within radius,Oscar ,TRUE,FALSE,,,,,
9686199,FARMACIA SANTA CECILIA,,464111,Farmacias sin minisúper,0 a 5 personas,INSURGENTES SUR,SINALOA PONIENTE,0,30590,7,Chiapas,1,Acacoyagua,1,Acacoyagua,71,7,15.33863076,-92.67557995,2024-11,9181182636,,,FALSE,FALSE,FALSE,No GSV within radius,Oscar ,TRUE,TRUE,INDEPENDENT,,,,
10437818,FARMACIA SIN NOMBRE,,464111,Farmacias sin minisúper,0 a 5 personas,NINGUNO,NINGUNO,0,30590,7,Chiapas,1,Acacoyagua,1,Acacoyagua,52,42,15.3484225,-92.67773804,2024-11,9181067745,,,FALSE,FALSE,FALSE,No GSV within radius,Oscar ,FALSE,FALSE,,TRUE,,,
10880378,FARMACIA ESQUIPULA,,464111,Farmacias sin minisúper,0 a 5 personas,CENTRAL MIGUEL HIDALGO NORTE,COSTERA,0,30590,7,Chiapas,1,Acacoyagua,1,Acacoyagua,67,1,15.3425047,-92.67453966,2024-11,9646245873,,,FALSE,TRUE,FALSE,No GSV within radius,Oscar ,TRUE,FALSE,,,,"MARKED IN GSV, Farmacia esquipulas",
11016505,ABARROTES MAGDA,,464112,Farmacias con minisúper,0 a 5 personas,CARLOS CASUGA OSAKA,COSTERA,0,30590,7,Chiapas,1,Acacoyagua,1,Acacoyagua,67,43,15.34267525,-92.67652562,2024-11,6677039647,,,FALSE,FALSE,FALSE,No GSV within radius,Oscar ,FALSE,FALSE,,,,NAME SAYS ABARROTES,
11251441,FARMACIA GUERRERO,,464111,Farmacias sin minisúper,0 a 5 personas,VICENTE GUERRERO NORTE,ZACATECAS,0,30590,7,Chiapas,1,Acacoyagua,1,Acacoyagua,52,2,15.34485939,-92.67699226,2024-11,9181055630,,,FALSE,FALSE,FALSE,No GSV within radius,Oscar ,FALSE,FALSE,,,TRUE,SEEMS TO BE A HOUSE,
359070,FARMACIA SANTA CRUZ,,464111,Farmacias sin minisúper,0 a 5 personas,MORELOS,PROFESOR CONSUELO SOLORZANO,0,29374,7,Chiapas,2,Acala,1,Acala,149,19,16.55610694,-92.81051549,2010-07,,,,FALSE,FALSE,FALSE,No GSV within radius,Oscar ,TRUE,FALSE,,,,,
359478,FARMACIA SAN PABLO,,464111,Farmacias sin minisúper,0 a 5 personas,TERCERA ORIENTE SUR LIBERTAD,TERCERA SUR ORIENTE,0,29370,7,Chiapas,2,Acala,1,Acala,11,2,16.55205015,-92.80484414,2010-07,,,,TRUE,FALSE,FALSE,No GSV within radius,Oscar ,TRUE,TRUE,INDEPENDENT,,,,
359482,FARMACIA DEL NIÑO DOCTOR,,464111,Farmacias sin minisúper,0 a 5 personas,INDEPENDENCIA,PRIMERA ORIENTE SUR HIDALGO,0,29370,7,Chiapas,2,Acala,1,Acala,11,6,16.55220923,-92.80682958,2010-07,,,,FALSE,FALSE,FALSE,No GSV within radius,Oscar ,TRUE,FALSE,,,,,
360023,FARMACIA SAN JOSE,,464111,Farmacias sin minisúper,0 a 5 personas,MORELOS,EL RECREO,,29372,7,Chiapas,2,Acala,1,Acala,134,5,16.55506004,-92.8074739,2010-07,9613644453,,,FALSE,FALSE,FALSE,No GSV within radius,Oscar ,TRUE,FALSE,,,,,
360052,FARMACIAS SIMILARES,,464111,Farmacias sin minisúper,6 a 10 personas,MORELOS,PRIMERA ORIENTE SUR HIDALGO,0,29370,7,Chiapas,2,Acala,1,Acala,134,13,16.55425932,-92.8053437,2010-07,,JUANCARLOS@HOTMAIL.COM,,TRUE,FALSE,FALSE,No GSV within radius,Oscar ,TRUE,TRUE,FARMACIAS SIMILARES,,,,
384480,FARMACIA SAN ISIDRO,,464111,Farmacias sin minisúper,0 a 5 personas,CENTRAL NORTE,CUARTA NORTE PONIENTE,105,29370,7,Chiapas,2,Acala,1,Acala,134,30,16.55792674,-92.80472472,2014-12,9616535035,,,TRUE,FALSE,FALSE,No GSV within radius,Oscar ,TRUE,TRUE,INDEPENDENT,,,,
6974934,FARMA SALUD,,464111,Farmacias sin minisúper,0 a 5 personas,PRIMERA ORIENTE SUR HIDALGO,CENTRAL ORIENTE,,29370,7,Chiapas,2,Acala,1,Acala,134,13,16.55425139,-92.80565347,2019-11,,,,FALSE,TRUE,FALSE,No GSV within radius,Oscar ,TRUE,FALSE,,,,,
6975500,GLORIA DEL CONSUELO ROSALES GOMEZ,,464111,Farmacias sin minisúper,0 a 5 personas,CORONEL RUIZ,TERCERA NORTE ORIENTE,0,29370,7,Chiapas,2,Acala,1,Acala,134,9,16.55625925,-92.8055292,2019-11,9614471631,,,FALSE,FALSE,FALSE,No GSV within radius,Oscar ,TRUE,FALSE,,,,,
6975507,FARMACIA SIN NOMBRE,,464111,Farmacias sin minisúper,0 a 5 personas,HIDALGO,TERCERA NORTE ORIENTE,,29370,7,Chiapas,2,Acala,1,Acala,134,10,16.55616224,-92.80469224,2019-11,,,,FALSE,FALSE,FALSE,No GSV within radius,Oscar ,TRUE,FALSE,,,,,
8273619,FARMACIA JUSTO JUEZ,,464111,Farmacias sin minisúper,0 a 5 personas,MORELOS,NANDAPUNGO,,29374,7,Chiapas,2,Acala,1,Acala,153,24,16.55683186,-92.81492802,2019-11,,,,FALSE,FALSE,FALSE,No GSV within radius,Oscar ,TRUE,FALSE,,,,,
9475796,FARMACIAS YZA SUC 0095 MERCADO,FARMACON SA DE CV,464111,Farmacias sin minisúper,0 a 5 personas,HIDALGO,Central Oriente,,29370,7,Chiapas,2,Acala,1,Acala,134,12,16.55502561,-92.80527107,2024-05,,ATENCIONACLIENTES@YZA.MX,WWW.YZA.MX,FALSE,FALSE,FALSE,No GSV within radius,Oscar ,TRUE,FALSE,,,,,
9616716,UNIDAD MEDICA SANTA TERESITA DE JESUS,,464111,Farmacias sin minisúper,0 a 5 personas,QUINTA NORTE ORIENTE MARIANO NANGO,ILUMINARIA,0,29370,7,Chiapas,2,Acala,1,Acala,012A,13,16.5567659,-92.79955404,2024-11,9611738392,SANTATERESITADEJESUS@GMAIL.COM,,FALSE,FALSE,FALSE,No GSV within radius,Oscar ,TRUE,TRUE,INDEPENDENT,,,,
9795140,FARMACIA HERNANDEZ,,464111,Farmacias sin minisúper,0 a 5 personas,NINGUNO,NINGUNO,,29370,7,Chiapas,2,Acala,1,Acala,83,30,16.56210247,-92.80049188,2024-11,9612184887,,,FALSE,FALSE,FALSE,No GSV within radius,Oscar ,FALSE,FALSE,,,,,
10367595,FARMALAB LA ESPERANZA,,464111,Farmacias sin minisúper,0 a 5 personas,MORELOS,NINGUNO,,29374,7,Chiapas,2,Acala,1,Acala,149,28,16.55662609,-92.81466993,2024-11,,,,FALSE,FALSE,FALSE,No GSV within radius,Oscar ,TRUE,FALSE,,,,,
10468858,FARMACIA DOÑA CHELO,,464111,Farmacias sin minisúper,0 a 5 personas,CORONEL RUIZ,PRIMERA NORTE PONIENTE,,29370,7,Chiapas,2,Acala,1,Acala,134,1,16.55586922,-92.80579882,2024-11,,,,FALSE,FALSE,FALSE,No GSV within radius,Oscar ,TRUE,FALSE,,,,,
10651020,FARMACIA FARMASALUD,,464111,Farmacias sin minisúper,0 a 5 personas,QUINTA NORTE PONIENTE,PRIMERA PONIENTE NORTE,0,29370,7,Chiapas,2,Acala,1,Acala,134,30,16.55873348,-92.80432428,2024-11,9611979062,,,FALSE,FALSE,FALSE,No GSV within radius,Oscar ,TRUE,FALSE,,,,,
11552793,FARMACIA EXPRES,,464111,Farmacias sin minisúper,0 a 5 personas,HIDALGO,PRIMERA NORTE ORIENTE,0,29370,7,Chiapas,2,Acala,1,Acala,134,3,16.55474621,-92.8054706,2024-11,,,,FALSE,FALSE,FALSE,No GSV within radius,Oscar ,TRUE,FALSE,,,,,
11687853,MEDICSTAT,,464111,Farmacias sin minisúper,0 a 5 personas,JUAREZ,TERCERA ORIENTE SUR LIBERTAD,0,29370,7,Chiapas,2,Acala,1,Acala,11,9,16.5523751,-92.80469132,2024-11,,,,FALSE,TRUE,FALSE,No GSV within radius,Oscar ,FALSE,FALSE,,,,,
444288,FARMACIA ACAPETAHUA,,464111,Farmacias sin minisúper,0 a 5 personas,SEGUNDA PONIENTE SUR,PRIMERA SUR PONIENTE,,30580,7,Chiapas,3,Acapetahua,1,Acapetahua,108,2,15.28058027,-92.69105298,2014-12,9181156517,,,TRUE,FALSE,FALSE,No GSV within radius,Oscar ,FALSE,FALSE,,,,,
444348,FARMACIA DEL SURESTE,,464111,Farmacias sin minisúper,0 a 5 personas,PRIMERA SUR PONIENTE,PRIMERA PONIENTE SUR,0,30580,7,Chiapas,3,Acapetahua,1,Acapetahua,108,12,15.28051017,-92.69037051,2014-12,,,,FALSE,FALSE,TRUE,No GSV within radius,Oscar ,TRUE,FALSE,,,,,
505876,FARMACIA EL HULAR,,464111,Farmacias sin minisúper,0 a 5 personas,CUARTA PONIENTE NORTE,PRIMERA NORTE PONIENTE,0,30580,7,Chiapas,3,Acapetahua,1,Acapetahua,108,8,15.28048246,-92.6930746,2010-07,9186470658,,,FALSE,TRUE,FALSE,No GSV within radius,Oscar ,FALSE,FALSE,,,,,
505979,FARMACIAS SIMILARES BETHEL,,464111,Farmacias sin minisúper,0 a 5 personas,CENTRAL MIGUEL HIDALGO,LAZARO CARDENAS,0,30583,7,Chiapas,3,Acapetahua,46,Soconusco,150,11,15.31495488,-92.72660972,2010-07,,,,FALSE,TRUE,FALSE,No GSV within radius,Oscar ,TRUE,FALSE,,,,,
505981,FARMACIA ESQUIPULAS,,464111,Farmacias sin minisúper,0 a 5 personas,CENTRAL MIGUEL HIDALGO,LAZARO CARDENAS,12,30583,7,Chiapas,3,Acapetahua,46,Soconusco,150,12,15.31507216,-92.72661118,2010-07,9621520954,,,FALSE,TRUE,FALSE,No GSV within radius,Oscar ,TRUE,FALSE,,,,,
508079,FARMACIA CRUZ ROJA,,464111,Farmacias sin minisúper,0 a 5 personas,CENTRAL SUR,PRIMERA SUR PONIENTE,1,30580,7,Chiapas,3,Acapetahua,1,Acapetahua,112,6,15.28231071,-92.68990634,2010-07,,AGUA_LARA@HOTMAIL.COM,,TRUE,TRUE,TRUE,No GSV within radius,Oscar ,TRUE,FALSE,,,,,
508089,FARMACIA SAN FRANCISCO,,464111,Farmacias sin minisúper,0 a 5 personas,CENTRAL PONIENTE,PRIMERA PONIENTE SUR,0,30580,7,Chiapas,3,Acapetahua,1,Acapetahua,112,6,15.28171309,-92.69057782,2010-07,9186470138,,,FALSE,FALSE,FALSE,No GSV within radius,Oscar ,TRUE,FALSE,,,,,
6297702,FARMACIAS ESQUIVAR,FARMACIAS ESQUIVAR SA DE CV,464111,Farmacias sin minisúper,0 a 5 personas,CENTRAL PONIENTE,PRIMERA PONIENTE NORTE,0,30580,7,Chiapas,3,Acapetahua,1,Acapetahua,112,7,15.28213541,-92.69027096,2010-07,9186470452,CEAC@ESQUIVAR.COM.MX,WWW.ESQUIVAR.COM.MX,FALSE,FALSE,FALSE,No GSV within radius,Oscar ,TRUE,TRUE,INDEPENDENT,,,,
6299014,FARMACIAS MEDICAS ECONOMICAS ACAPETAHUA 1,DINAMICA DE FARMACOS SA DE CV,464111,Farmacias sin minisúper,0 a 5 personas,CENTRAL PONIENTE,PRIMERA PONIENTE NORTE,28,30580,7,Chiapas,3,Acapetahua,1,Acapetahua,108,10,15.28145227,-92.69100576,2024-05,,,,FALSE,FALSE,FALSE,No GSV within radius,Oscar ,TRUE,FALSE,,,,,
6702028,FARMACIAS SIMILARES ACAPETAHUA 1,GOYOMA SA DE CV,464111,Farmacias sin minisúper,0 a 5 personas,CENTRAL PONIENTE,Segunda Poniente Sur,,30580,7,Chiapas,3,Acapetahua,1,Acapetahua,108,11,15.28149948,-92.69080414,2016-01,,CGEN@GOYOMA.COM,,FALSE,TRUE,FALSE,No GSV within radius,Oscar ,FALSE,FALSE,,,TRUE,SEEMS TO BE CLOSED,
9477630,FARMACIAS YZA SUC 9058 ACAPETAHUA,FARMACON SA DE CV,464111,Farmacias sin minisúper,0 a 5 personas,CENTRAL SUR,Central Poniente,,30580,7,Chiapas,3,Acapetahua,1,Acapetahua,112,6,15.28232506,-92.68991016,2024-05,,ATENCIONACLIENTES@YZA.MX,WWW.YZA.MX,TRUE,FALSE,FALSE,No GSV within radius,Oscar ,TRUE,FALSE,,,,,
10190991,FARMACIA LA FE,,464111,Farmacias sin minisúper,0 a 5 personas,PRIMERA PONIENTE NORTE,PRIMERA NORTE PONIENTE,0,30508,7,Chiapas,3,Acapetahua,1,Acapetahua,108,24,15.28274879,-92.69170638,2024-11,,,,FALSE,FALSE,FALSE,No GSV within radius,Oscar ,FALSE,FALSE,,,,,
10460570,FARMACIA BOTIQUIN,,464111,Farmacias sin minisúper,0 a 5 personas,CENTRAL MIGUEL HIDALGO,NINGUNO,0,30583,7,Chiapas,3,Acapetahua,46,Soconusco,150,1,15.31646745,-92.7257193,2024-11,9181016334,,,FALSE,FALSE,FALSE,No GSV within radius,Oscar ,TRUE,FALSE,,,,,
10607550,FARMA PLUS,,464111,Farmacias sin minisúper,0 a 5 personas,SEGUNDA ORIENTE SUR,TERCERA SUR ORIENTE,0,30580,7,Chiapas,3,Acapetahua,1,Acapetahua,112,25,15.28128293,-92.68604715,2024-11,9186470262,,,FALSE,FALSE,FALSE,No GSV within radius,Oscar ,TRUE,TRUE,INDEPENDENT,,,,
10820304,FARMACIA LENIS,,464111,Farmacias sin minisúper,0 a 5 personas,GUADALUPE VICTORIA,FRANCISCO VILLA,0,30583,7,Chiapas,3,Acapetahua,46,Soconusco,165,6,15.3136095,-92.72930014,2024-11,9671433352,,,FALSE,FALSE,TRUE,No GSV within radius,Oscar ,TRUE,FALSE,,,,,
10964451,FARMACIA YOLAYNI,,464111,Farmacias sin minisúper,0 a 5 personas,CENTRAL ORIENTE,CENTRAL NORTE,0,30580,7,Chiapas,3,Acapetahua,1,Acapetahua,112,8,15.28250702,-92.68987462,2024-11,9641086956,,,FALSE,FALSE,FALSE,No GSV within radius,Oscar ,FALSE,FALSE,,,,,
11412745,FARMACIA SIMILARES ACAPETAHUA 2,GOYOMA SAPI DE CV,464111,Farmacias sin minisúper,0 a 5 personas,CENTRAL SUR,PRIMERA SUR PONIENTE,0,30580,7,Chiapas,3,Acapetahua,1,Acapetahua,112,5,15.28159083,-92.68921166,2024-11,9181256342,ACAP02CHIS@HOTMAIL.COM,,TRUE,FALSE,FALSE,No GSV within radius,Oscar ,TRUE,TRUE,FARMACIAS SIMILARES,,,,
11521246,FARMACIA NELLY,,464112,Farmacias con minisúper,0 a 5 personas,SEGUNDA PONIENTE NORTE,PRIMERA NORTE PONIENTE,0,30580,7,Chiapas,3,Acapetahua,1,Acapetahua,108,10,15.2814855,-92.69182811,2024-11,9181123047,,,FALSE,FALSE,FALSE,No GSV within radius,Oscar ,TRUE,FALSE,,,,,
405992,FARMAGENERICA Y MAS,,464111,Farmacias sin minisúper,0 a 5 personas,20 DE NOVIEMBRE,IGNACIO ALLENDE,0,30190,7,Chiapas,4,Altamirano,1,Altamirano,124,18,16.73731347,-92.03718001,2014-12,9191148991,CUER_72@HOTMAIL.COM,,FALSE,FALSE,FALSE,No GSV within radius,Oscar ,FALSE,FALSE,,,,,
478315,FARMACIAS YIREH,,464111,Farmacias sin minisúper,0 a 5 personas,UBILIO GARCIA,VICENTE GUERRERO,0,30190,7,Chiapas,4,Altamirano,1,Altamirano,139,43,16.7342014,-92.03932901,2010-07,,,,FALSE,FALSE,FALSE,No GSV within radius,Oscar ,FALSE,FALSE,,,,,
478345,FARMACIA SAN CARLOS,,464111,Farmacias sin minisúper,0 a 5 personas,UBILIO GARCIA,JOSE MARIA MORELOS,0,30190,7,Chiapas,4,Altamirano,1,Altamirano,139,54,16.7330843,-92.03993531,2010-07,,,,FALSE,FALSE,FALSE,No GSV within radius,Oscar ,TRUE,TRUE,INDEPENDENT,,,,
478409,FARMACIA GUADALUPANA,,464111,Farmacias sin minisúper,0 a 5 personas,UBILIO GARCIA,ENRIQUE BORJA,0,30190,7,Chiapas,4,Altamirano,1,Altamirano,139,68,16.72996065,-92.04137165,2010-07,,,,FALSE,FALSE,FALSE,No GSV within radius,Oscar ,FALSE,FALSE,,,,,
479172,FARMACIA MARIA AUXILIADORA,,464112,Farmacias con minisúper,0 a 5 personas,UBILIO GARCIA,IGNACIO ZARAGOZA,0,30190,7,Chiapas,4,Altamirano,1,Altamirano,124,37,16.7362687,-92.03832556,2010-07,,,,TRUE,FALSE,FALSE,No GSV within radius,Oscar ,TRUE,FALSE,,,,,
479508,UARAS FARMACIAS,,464111,Farmacias sin minisúper,0 a 5 personas,CENTRAL,FRANCISCO JAVIER MINA,0,30190,7,Chiapas,4,Altamirano,1,Altamirano,139,34,16.73525547,-92.03764777,2010-07,,,,FALSE,FALSE,FALSE,No GSV within radius,Oscar ,FALSE,FALSE,,,,,
6197668,FARMAGENERICA Y ALGO MAS,,464111,Farmacias sin minisúper,0 a 5 personas,UBILIO GARCIA,VICENTE GUERRERO,0,30190,7,Chiapas,4,Altamirano,1,Altamirano,139,43,16.7345328,-92.03914551,2010-07,,,,FALSE,FALSE,FALSE,No GSV within radius,Oscar ,TRUE,FALSE,,,,,
7012698,FARMACIA GENERICA,,464111,Farmacias sin minisúper,0 a 5 personas,UBILIO GARCIA,ADOLFO LOPEZ MATEOS,0,30190,7,Chiapas,4,Altamirano,1,Altamirano,139,28,16.73113988,-92.04088291,2019-11,,,,FALSE,FALSE,FALSE,No GSV within radius,Oscar ,FALSE,FALSE,,,,,
8638821,FARMACIA AMAYA,,464111,Farmacias sin minisúper,0 a 5 personas,20 DE NOVIEMBRE,SALVADOR REYES,0,30190,7,Chiapas,4,Altamirano,1,Altamirano,139,42,16.72814524,-92.0410052,2019-11,,,,FALSE,FALSE,FALSE,No GSV within radius,Oscar ,TRUE,FALSE,,,,,
9459035,FAMACIAS SIMILARES  ALTAMIRANO 1,FARRAM SA DE CV,464111,Farmacias sin minisúper,0 a 5 personas,UBILIO GARCÍA,Vicente Guerrero,,30190,7,Chiapas,4,Altamirano,1,Altamirano,139,43,16.7345997,-92.03910794,2024-05,,CONTABILIDAD2@FARRAM.COM.MX,,FALSE,FALSE,FALSE,No GSV within radius,Oscar ,FALSE,FALSE,,,,,
9475648,FARMACIAS YZA SUC 9057 ALTAMIRANO PARQUE,FARMACON SA DE CV,464111,Farmacias sin minisúper,0 a 5 personas,UBILIO GARCÍA,Central,1,30190,7,Chiapas,4,Altamirano,1,Altamirano,139,33,16.73562482,-92.03853323,2024-05,,ATENCIONACLIENTES@YZA.MX,WWW.YZA.MX,FALSE,FALSE,FALSE,No GSV within radius,Oscar ,FALSE,FALSE,,,,,
9551405,FARMACIAS ROSAS,,464111,Farmacias sin minisúper,0 a 5 personas,CENTRAL,UBILIO GARCIA,0,30190,7,Chiapas,4,Altamirano,1,Altamirano,139,33,16.73554234,-92.03828413,2024-11,,,,FALSE,FALSE,FALSE,No GSV within radius,Oscar ,FALSE,FALSE,,,,,
9725946,FARMACIA SANTA FE,,464111,Farmacias sin minisúper,0 a 5 personas,20 DE NOVIEMBRE,NINGUNO,0,30190,7,Chiapas,4,Altamirano,1,Altamirano,162,1,16.72640035,-92.04182572,2024-11,,,,FALSE,FALSE,FALSE,No GSV within radius,Oscar ,FALSE,FALSE,,,,,
9791867,FARMACIA FATIMA,,464111,Farmacias sin minisúper,0 a 5 personas,20 DE NOVIEMBRE,NINGUNO,0,30190,7,Chiapas,4,Altamirano,1,Altamirano,162,45,16.72000324,-92.04367649,2024-11,,,,FALSE,FALSE,FALSE,No GSV within radius,Oscar ,TRUE,FALSE,,,,,
10645122,FARMACIA SIN NOMBRE,,464111,Farmacias sin minisúper,0 a 5 personas,IGNACIO ALLENDE,BELISARIO DOMINGUEZ,0,30190,7,Chiapas,4,Altamirano,1,Altamirano,124,43,16.73548531,-92.03271247,2024-11,,,,FALSE,FALSE,FALSE,No GSV within radius,Oscar ,FALSE,FALSE,,TRUE,,,
10705121,FARMACIA FARMA VIDA,,464111,Farmacias sin minisúper,0 a 5 personas,FRANCISCO JAVIER MINA,16 DE SEPTIEMBRE,0,30190,7,Chiapas,4,Altamirano,1,Altamirano,139,8,16.73248349,-92.03798872,2024-11,,,,FALSE,FALSE,FALSE,No GSV within radius,Oscar ,FALSE,FALSE,,,,,
10715492,FARMACIA CADAY,,464111,Farmacias sin minisúper,0 a 5 personas,VICENTE GUERRERO,JOAQUIN MIGUEL GUTIERREZ,0,30190,7,Chiapas,4,Altamirano,1,Altamirano,139,46,16.7355936,-92.04053327,2024-11,,,,FALSE,FALSE,FALSE,No GSV within radius,Oscar ,TRUE,FALSE,,,,,
10809793,FARMACIA SIN NOMBRE,,464111,Farmacias sin minisúper,0 a 5 personas,UBILIO GARCIA,ROSARIO CASTELLANOS,0,30190,7,Chiapas,4,Altamirano,1,Altamirano,139,53,16.73191446,-92.04056418,2024-11,,,,FALSE,FALSE,FALSE,No GSV within radius,Oscar ,FALSE,FALSE,,,,,
10846447,FARMACIA LA ESPERANZA,,464111,Farmacias sin minisúper,0 a 5 personas,IGNACIO ZARAGOZA,5 DE MAYO,0,30190,7,Chiapas,4,Altamirano,1,Altamirano,124,38,16.73703193,-92.03824229,2024-11,,,,FALSE,FALSE,FALSE,No GSV within radius,Oscar ,TRUE,FALSE,,,,,
10915025,FARMACIA LA CENTRAL,,464111,Farmacias sin minisúper,0 a 5 personas,CENTRAL,JOSEFA ORTIZ DE DOMINGUEZ,0,30190,7,Chiapas,4,Altamirano,1,Altamirano,124,80,16.73428064,-92.03524944,2024-11,,,,FALSE,FALSE,FALSE,No GSV within radius,Oscar ,TRUE,FALSE,,,,,
10917303,FARMA VIDA,,464111,Farmacias sin minisúper,0 a 5 personas,UBILIO GARCIA,16 DE SEPTIEMBRE,0,30190,7,Chiapas,4,Altamirano,1,Altamirano,139,55,16.73399225,-92.03944736,2024-11,,,,FALSE,FALSE,FALSE,No GSV within radius,Oscar ,TRUE,FALSE,,,,,
11145201,FARMACIA. ALTAMIRANO,,464111,Farmacias sin minisúper,0 a 5 personas,IGNACIO ZARAGOZA,20 DE NOVIEMBRE,0,30190,7,Chiapas,4,Altamirano,1,Altamirano,124,16,16.73653748,-92.03720789,2024-11,,,,FALSE,FALSE,FALSE,No GSV within radius,Oscar ,FALSE,FALSE,,,,,
11352430,MINI FARMACIA SIN NOMBRE,,464112,Farmacias con minisúper,0 a 5 personas,FRANCISCO JAVIER MINA,NINGUNO,0,30190,7,Chiapas,4,Altamirano,1,Altamirano,158,1,16.74215704,-92.03414548,2024-11,,,,FALSE,FALSE,FALSE,No GSV within radius,Oscar ,FALSE,FALSE,,TRUE,,,
350462,FARMACIA SAN LORENZO,,464111,Farmacias sin minisúper,0 a 5 personas,BELISARIO DOMINGUEZ,CONSTITUCION,0,29700,7,Chiapas,5,Amatán,1,Amatán,47,9,17.37376315,-92.81769025,2010-07,9611524044,,,TRUE,FALSE,FALSE,No GSV within radius,Oscar ,TRUE,FALSE,,,,MARKED IN GSV Farmacia san lorenzo,
350479,FARMACIA EL ANGEL,,464111,Farmacias sin minisúper,0 a 5 personas,CENTRAL,BELISARIO DOMINGUEZ,0,29700,7,Chiapas,5,Amatán,1,Amatán,47,2,17.37476103,-92.81654895,2010-07,,,,FALSE,FALSE,TRUE,No GSV within radius,Oscar ,FALSE,FALSE,,,,,
350539,FARMACIA NUESTRA SEÑORA DE LA LUZ,,464111,Farmacias sin minisúper,0 a 5 personas,CENTRAL,NINGUNO,,29700,7,Chiapas,5,Amatán,1,Amatán,70,62,17.37122289,-92.81950953,2010-07,9321087913,,,FALSE,TRUE,FALSE,No GSV within radius,Oscar ,TRUE,FALSE,,,,MARKED IN GSV FARMACIA NUESTRA SRA DE LA LUZ,
350556,FARMACIA SAN JUDAS TADEO,,464111,Farmacias sin minisúper,0 a 5 personas,CENTRAL,LAZARO CARDENAS,0,29700,7,Chiapas,5,Amatán,1,Amatán,70,2,17.37106813,-92.81964241,2010-07,9321287586,,,FALSE,FALSE,FALSE,No GSV within radius,Oscar ,TRUE,FALSE,,,,,
6939985,FARMACIA REGALO DE DIOS,,464111,Farmacias sin minisúper,0 a 5 personas,CENTRAL,GUADALUPE,,29700,7,Chiapas,5,Amatán,1,Amatán,70,1,17.37232457,-92.81917204,2019-11,9321249047,,,FALSE,FALSE,FALSE,No GSV within radius,Oscar ,TRUE,FALSE,,,,,
6940046,FARMACIA LA CENTRAL,,464111,Farmacias sin minisúper,0 a 5 personas,CENTRAL,GUADALUPE,,29700,7,Chiapas,5,Amatán,1,Amatán,70,39,17.37311072,-92.81885561,2019-11,,,,FALSE,TRUE,FALSE,No GSV within radius,Oscar ,TRUE,FALSE,,,,,
6940047,FARMACIA DE MAMA,,464112,Farmacias con minisúper,0 a 5 personas,CENTRAL,GUADALUPE,0,29700,7,Chiapas,5,Amatán,1,Amatán,70,39,17.37305836,-92.81888739,2019-11,,,,FALSE,TRUE,FALSE,No GSV within radius,Oscar ,FALSE,FALSE,,,,,
9965838,FARMACIA SIN NOMBRE,,464111,Farmacias sin minisúper,0 a 5 personas,CENTRAL,BENITO JUAREZ,,29700,7,Chiapas,5,Amatán,1,Amatán,70,4,17.372931,-92.81887703,2024-11,,,,FALSE,FALSE,FALSE,No GSV within radius,Oscar ,FALSE,FALSE,,,,,
10384519,FARMACIA,,464112,Farmacias con minisúper,0 a 5 personas,CENTRAL,BELISARIO DOMINGUEZ,0,29700,7,Chiapas,5,Amatán,1,Amatán,47,9,17.37359302,-92.81845576,2024-11,,,,FALSE,FALSE,FALSE,No GSV within radius,Oscar ,FALSE,FALSE,,,,,
439519,FARMACIA ROZZIO,,464111,Farmacias sin minisúper,0 a 5 personas,CENTRAL,SIN REFERENCIA,,30940,7,Chiapas,6,Amatenango de la Frontera,38,El Pacayal,97,11,15.59860266,-92.04238744,2014-12,,,,FALSE,FALSE,FALSE,No GSV within radius,Oscar ,FALSE,FALSE,,,,,
439532,FARMACIA RIO FARMA,,464111,Farmacias sin minisúper,0 a 5 personas,CENTRAL,5 DE MAYO,,30940,7,Chiapas,6,Amatenango de la Frontera,38,El Pacayal,97,5,15.59836197,-92.04196759,2014-12,,,,FALSE,FALSE,FALSE,No GSV within radius,Oscar ,TRUE,TRUE,INDEPENDENT,,,,
503322,FARMACIA LA UNICA,,464112,Farmacias con minisúper,0 a 5 personas,GRIJALVA,NINGUNO,0,30930,7,Chiapas,6,Amatenango de la Frontera,1,Amatenango de la Frontera,63,1,15.43498146,-92.11416388,2010-07,,,,FALSE,FALSE,FALSE,No GSV within radius,Oscar ,TRUE,FALSE,,,,,
503465,FARMACIA DE DIOS,,464111,Farmacias sin minisúper,0 a 5 personas,CUAUHTEMOC,CENTRAL,,30940,7,Chiapas,6,Amatenango de la Frontera,38,El Pacayal,97,3,15.59737932,-92.0420341,2010-07,,,,FALSE,FALSE,FALSE,No GSV within radius,Oscar ,TRUE,FALSE,,,,,
8152204,FARMACIA SAN MIGUEL,,464111,Farmacias sin minisúper,0 a 5 personas,GUILLEN,NINGUNO,0,30940,7,Chiapas,6,Amatenango de la Frontera,38,El Pacayal,97,21,15.59942153,-92.04225598,2019-11,,,,FALSE,FALSE,FALSE,No GSV within radius,Oscar ,FALSE,FALSE,,,,,
8152269,FARMCIA,,464111,Farmacias sin minisúper,0 a 5 personas,MATAMOROS,CENTRAL,,30940,7,Chiapas,6,Amatenango de la Frontera,38,El Pacayal,82,6,15.59949372,-92.0430307,2019-11,,,,FALSE,FALSE,FALSE,No GSV within radius,Oscar ,FALSE,FALSE,,,,,
8152378,FARMACIA BELEN,,464112,Farmacias con minisúper,0 a 5 personas,LOS LAURELES,NINGUNO,,30940,7,Chiapas,6,Amatenango de la Frontera,38,El Pacayal,82,9,15.59861198,-92.04566076,2019-11,,,,FALSE,FALSE,FALSE,No GSV within radius,Oscar ,FALSE,FALSE,,,,,
9386169,FARMACIA VIDA,,464111,Farmacias sin minisúper,0 a 5 personas,SAN NICOLAS,VICENTE GUERRERO,,29430,7,Chiapas,7,Amatenango del Valle,1,Amatenango del Valle,60,22,16.52704348,-92.4286017,2021-11,9921022811,,,FALSE,FALSE,FALSE,No GSV within radius,Oscar ,TRUE,FALSE,,,,,
9413576,FARMACIA SANTA LUCIA,,464111,Farmacias sin minisúper,0 a 5 personas,REVOLUCION,5 DE MAYO,0,29430,7,Chiapas,7,Amatenango del Valle,1,Amatenango del Valle,60,1,16.52903306,-92.43352422,2023-11,9921107724,,,FALSE,FALSE,FALSE,No GSV within radius,Oscar ,TRUE,FALSE,,,,,
9453925,FARMACIA GUADALUPANA,,464112,Farmacias con minisúper,0 a 5 personas,20 DE NOVIEMBRE,REVOLUCION,0,29430,7,Chiapas,7,Amatenango del Valle,1,Amatenango del Valle,60,4,16.52844091,-92.43359334,2023-11,9921187021,,,FALSE,FALSE,FALSE,No GSV within radius,Oscar ,TRUE,FALSE,,,,,
11096695,FARMACIA JEHOVA ES MI PASTOR,,464111,Farmacias sin minisúper,0 a 5 personas,20 DE NOVIEMBRE,NINGUNO,0,29430,7,Chiapas,7,Amatenango del Valle,1,Amatenango del Valle,60,31,16.52804796,-92.4296004,2024-11,9921105282,,,FALSE,FALSE,FALSE,No GSV within radius,Oscar ,FALSE,FALSE,,,,,
432468,FARMACIA CRISTAL,,464111,Farmacias sin minisúper,0 a 5 personas,QUINTA ORIENTE NORTE,SEXTA NORTE ORIENTE,0,30370,7,Chiapas,8,Angel Albino Corzo,1,Jaltenango de la Paz (Ángel Albino Corzo),176,28,15.87248921,-92.71689142,2014-12,992111690,,,FALSE,TRUE,FALSE,No GSV within radius,Oscar ,TRUE,FALSE,,,,,
432473,FARMACIA BETEL,,464111,Farmacias sin minisúper,0 a 5 personas,QUINTA ORIENTE NORTE,SEXTA NORTE ORIENTE,0,30370,7,Chiapas,8,Angel Albino Corzo,1,Jaltenango de la Paz (Ángel Albino Corzo),176,28,15.87233224,-92.71704888,2014-12,965651070,,,FALSE,FALSE,FALSE,No GSV within radius,Oscar ,TRUE,FALSE,,,,,
432640,OFICINAS ADMINISTRATIVAS DE COMIALEX,COMIALEX SA DE CV,464112,Farmacias con minisúper,0 a 5 personas,PRIMERA NORTE ORIENTE,Ninguno,,30370,7,Chiapas,8,Angel Albino Corzo,1,Jaltenango de la Paz (Ángel Albino Corzo),180,19,15.8723592,-92.7231774,2010-07,,71560ALBINO@GMAIL.COM,,FALSE,FALSE,FALSE,No GSV within radius,Oscar ,TRUE,FALSE,,,,"NAME MUST BE WRONG, PHARMACY FOUND AT 15° 52' 20.4931"" N 92° 43' 23.4386"" W",
496861,FARMACIA SIN NOMBRE,,464111,Farmacias sin minisúper,0 a 5 personas,NINGUNO,NINGUNO,,30370,7,Chiapas,8,Angel Albino Corzo,16,Nueva Palestina,212,2,15.80832081,-92.75099623,2010-07,,,,FALSE,FALSE,FALSE,No GSV within radius,Oscar ,FALSE,FALSE,,TRUE,,,
496876,FARMACIA Y ABARROTES XIHUMARA,,464112,Farmacias con minisúper,0 a 5 personas,NINGUNO,NINGUNO,,30370,7,Chiapas,8,Angel Albino Corzo,16,Nueva Palestina,212,13,15.80575544,-92.75105698,2010-07,,,,FALSE,FALSE,FALSE,No GSV within radius,Oscar ,FALSE,FALSE,,TRUE,,,
496881,FARMACIA LUPITA,,464112,Farmacias con minisúper,0 a 5 personas,NINGUNO,NINGUNO,,30370,7,Chiapas,8,Angel Albino Corzo,16,Nueva Palestina,212,3,15.8070004,-92.75098489,2014-12,,,,FALSE,FALSE,FALSE,No GSV within radius,Oscar ,FALSE,FALSE,,TRUE,,,
496912,FARMACIA Y ABARROTES BIGTKEYMAR,,464112,Farmacias con minisúper,0 a 5 personas,NINGUNO,NINGUNO,,30370,7,Chiapas,8,Angel Albino Corzo,16,Nueva Palestina,231,5,15.80692361,-92.74921937,2014-12,,,,FALSE,FALSE,FALSE,No GSV within radius,Oscar ,FALSE,FALSE,,TRUE,,,
497032,FARMACIA DEL PUEBLO,,464112,Farmacias con minisúper,0 a 5 personas,CENTRAL NORTE,SEGUNDA NORTE PONIENTE,,30370,7,Chiapas,8,Angel Albino Corzo,1,Jaltenango de la Paz (Ángel Albino Corzo),180,26,15.87332273,-92.72284722,2010-07,9926551025,,,FALSE,FALSE,FALSE,No GSV within radius,Oscar ,TRUE,FALSE,,,,,
497054,FARMACIA DEL AHORRO FAMILIAR,,464112,Farmacias con minisúper,0 a 5 personas,PRIMERA NORTE ORIENTE,PRIMERA ORIENTE NORTE,,30370,7,Chiapas,8,Angel Albino Corzo,1,Jaltenango de la Paz (Ángel Albino Corzo),180,20,15.87248172,-92.72318435,2010-07,9926551124,,,FALSE,FALSE,FALSE,No GSV within radius,Oscar ,FALSE,FALSE,,,,,
497087,FARMACIA SIMILAR,,464112,Farmacias con minisúper,0 a 5 personas,PRIMERA NORTE ORIENTE,PRIMERA ORIENTE NORTE,,30370,7,Chiapas,8,Angel Albino Corzo,1,Jaltenango de la Paz (Ángel Albino Corzo),180,19,15.87202487,-92.72280575,2010-07,9926550776,,,FALSE,FALSE,FALSE,No GSV within radius,Oscar ,TRUE,FALSE,,,,,
497247,FARMACIA CAMACHO,,464111,Farmacias sin minisúper,0 a 5 personas,SEGUNDA ORIENTE SUR,CENTRAL ORIENTE,0,30370,7,Chiapas,8,Angel Albino Corzo,1,Jaltenango de la Paz (Ángel Albino Corzo),195,7,15.87030055,-92.72319004,2010-07,,,,FALSE,FALSE,FALSE,No GSV within radius,Oscar ,FALSE,FALSE,,,,,
497420,FARMACIA LA REINA,,464111,Farmacias sin minisúper,0 a 5 personas,TERCERA ORIENTE NORTE,PRIMERA NORTE ORIENTE,,30370,7,Chiapas,8,Angel Albino Corzo,1,Jaltenango de la Paz (Ángel Albino Corzo),180,1,15.87110486,-92.72090931,2010-07,9926550398,,,TRUE,FALSE,FALSE,No GSV within radius,Oscar ,TRUE,FALSE,,,,,
6298602,FARMACIAS ESQUIVAR SUCURSAL JALTENANGO,FARMACIAS ESQUIVAR SA DE CV,464112,Farmacias con minisúper,0 a 5 personas,CENTRAL SUR,PRIMERA SUR ORIENTE,8,30370,7,Chiapas,8,Angel Albino Corzo,1,Jaltenango de la Paz (Ángel Albino Corzo),195,20,15.8716266,-92.72432382,2011-03,,NOTISAT@ESQUIVAR.COM.MX,,FALSE,FALSE,FALSE,No GSV within radius,Oscar ,TRUE,FALSE,,,,"15.8718996,-92.7240679",
7733998,FARMACIA BETEL,,464111,Farmacias sin minisúper,0 a 5 personas,PRIMERA SUR ORIENTE,SEGUNDA ORIENTE SUR,,30370,7,Chiapas,8,Angel Albino Corzo,1,Jaltenango de la Paz (Ángel Albino Corzo),195,1,15.86992597,-92.72322613,2019-11,,,,TRUE,FALSE,FALSE,No GSV within radius,Oscar ,TRUE,TRUE,INDEPENDENT,,,,
7734224,FARMACIA SANTA RITA,,464112,Farmacias con minisúper,0 a 5 personas,QUINTA ORIENTE NORTE,SEXTA NORTE ORIENTE,0,30370,7,Chiapas,8,Angel Albino Corzo,1,Jaltenango de la Paz (Ángel Albino Corzo),176,28,15.87260843,-92.7167718,2019-11,9921026708,,,FALSE,FALSE,FALSE,No GSV within radius,Oscar ,TRUE,FALSE,,,,,
7734277,FARMACIA MULTIMEDICA,,464112,Farmacias con minisúper,0 a 5 personas,QUINTA NORTE ORIENTE,CUARTA ORIENTE NORTE,0,30370,7,Chiapas,8,Angel Albino Corzo,1,Jaltenango de la Paz (Ángel Albino Corzo),176,15,15.87238734,-92.71767639,2019-11,9651106016,,,FALSE,FALSE,FALSE,No GSV within radius,Oscar ,TRUE,TRUE,INDEPENDET,,,,
7734451,FARMACIA ESQUIPULAS,,464112,Farmacias con minisúper,0 a 5 personas,TERCERA NORTE ORIENTE,SEGUNDA ORIENTE NORTE,,30370,7,Chiapas,8,Angel Albino Corzo,1,Jaltenango de la Paz (Ángel Albino Corzo),180,7,15.87231633,-92.72039653,2019-11,9611797387,,,FALSE,FALSE,FALSE,No GSV within radius,Oscar ,FALSE,FALSE,,,,,
7734505,FARMACIA DE DIOS,,464112,Farmacias con minisúper,0 a 5 personas,CENTRAL NORTE,SEGUNDA NORTE ORIENTE,,30370,7,Chiapas,8,Angel Albino Corzo,1,Jaltenango de la Paz (Ángel Albino Corzo),180,21,15.87358375,-92.72242519,2019-11,9921039650,,,FALSE,FALSE,FALSE,No GSV within radius,Oscar ,FALSE,FALSE,,,,,
8999128,FARMACIA AUXILIADORA,,464112,Farmacias con minisúper,0 a 5 personas,QUINTA ORIENTE NORTE,SEPTIMA NORTE ORIENTE,0,30370,7,Chiapas,8,Angel Albino Corzo,1,Jaltenango de la Paz (Ángel Albino Corzo),176,12,15.87354966,-92.71594971,2019-11,9611660936,,,FALSE,FALSE,FALSE,No GSV within radius,Oscar ,FALSE,FALSE,,,,,
9044361,VENTA DE MEDICAMENTOS SIN NOMBRE,,464111,Farmacias sin minisúper,0 a 5 personas,NINGUNO,NINGUNO,,30370,7,Chiapas,8,Angel Albino Corzo,16,Nueva Palestina,212,22,15.80903114,-92.74996914,2019-11,,,,FALSE,FALSE,FALSE,No GSV within radius,Oscar ,FALSE,FALSE,,TRUE,,,
9410373,FARMACIAS SANTA CRUZ,SUPER FARMACIAS DEL SURESTE SA DE CV,464112,Farmacias con minisúper,0 a 5 personas,PRIMERA ORIENTE NORTE,PRIMERA PONIENTE NORTE,0,,7,Chiapas,8,Angel Albino Corzo,1,Jaltenango de la Paz (Ángel Albino Corzo),180,25,15.8727252,-92.72355494,2023-11,,FCIA_SANTACRUZ@YAHOO.COM,,FALSE,FALSE,FALSE,No GSV within radius,Oscar ,TRUE,FALSE,,,,"15° 52' 21.8107"" N 92° 43' 24.7976"" W",
9474188,FARMACIAS YZA SUC 0070 JALTENANGO,FARMACON SA DE CV,464111,Farmacias sin minisúper,0 a 5 personas,CENTRAL SUR,Primera Sur Oriente,,30370,7,Chiapas,8,Angel Albino Corzo,1,Jaltenango de la Paz (Ángel Albino Corzo),195,20,15.87140338,-92.72453029,2024-05,,ATENCIONACLIENTES@YZA.MX,WWW.YZA.MX,FALSE,FALSE,FALSE,No GSV within radius,Oscar ,TRUE,FALSE,,,,"15° 52' 17.0522"" N 92° 43' 28.3091"" W",
490939,FARMACIA EL ALBA,,464111,Farmacias sin minisúper,0 a 5 personas,PRIMERA ORIENTE,PRIMERA SUR,0,30450,7,Chiapas,9,Arriaga,1,Arriaga,014A,8,16.23392479,-93.90089611,2010-07,,,,TRUE,FALSE,FALSE,No GSV within radius,Oscar ,FALSE,FALSE,,,,,
491301,FARMACIA CAYED S,,464111,Farmacias sin minisúper,0 a 5 personas,FRANCISCO SARABIA,RIO GRANDE,0,30450,7,Chiapas,9,Arriaga,1,Arriaga,243,7,16.24037377,-93.88756564,2010-07,9666622544,,,FALSE,FALSE,FALSE,No GSV within radius,Oscar ,TRUE,TRUE,INDEPENDENT,,,,
491825,FARMACIA SAN ISIDRO,,464111,Farmacias sin minisúper,0 a 5 personas,CENTRAL SUR,CENTRAL,0,30450,7,Chiapas,9,Arriaga,1,Arriaga,135,15,16.23479388,-93.90044341,2010-07,9661273782,,,FALSE,FALSE,FALSE,No GSV within radius,Oscar ,TRUE,FALSE,,,,"16° 14' 5.258"" N 93° 54' 1.5962"" W",
491912,FARMACIA SAGRADO CORAZON DE JESUS,,464111,Farmacias sin minisúper,0 a 5 personas,SEGUNDA SUR,DECIMA PRIMERA PONIENTE,965,30450,7,Chiapas,9,Arriaga,1,Arriaga,135,33,16.23090183,-93.90472689,2010-07,,,,FALSE,TRUE,FALSE,No GSV within radius,Oscar ,TRUE,FALSE,,,,,
6871796,FARMACIAS SIMILARES ARRIAGA 1,,464111,Farmacias sin minisúper,0 a 5 personas,PRIMERA SUR,Tercera Oriente,218,30450,7,Chiapas,9,Arriaga,1,Arriaga,014A,1,16.23293251,-93.90041085,2019-04,,ARRIAGAF470@GMAIL.COM,,FALSE,FALSE,FALSE,No GSV within radius,Oscar ,TRUE,TRUE,FARMACIAS SIMILARES,,,,
6878251,FARMACIAS SANTA CRUZ,SUPER FARMACIAS DEL SURESTE SA DE CV,464112,Farmacias con minisúper,0 a 5 personas,PRIMERA SUR,NINGUNO,8,,7,Chiapas,9,Arriaga,1,Arriaga,014A,2,16.23398695,-93.89956839,2019-04,,FCIA_SANTACRUZ@YAHOO.COM,WWW.FARMACIASANTACRUZ.COM.MX,FALSE,FALSE,FALSE,No GSV within radius,Oscar ,TRUE,FALSE,,,,"16° 14' 2.3528"" N 93° 53' 58.4462"" W",
6881368,FARMACIAS SIMILARES ARRIAGA 2,,464111,Farmacias sin minisúper,0 a 5 personas,PRIMERA NORTE,Central,,30450,7,Chiapas,9,Arriaga,1,Arriaga,014A,11,16.23501985,-93.89876967,2019-04,,ARRIAGA2F2146@GMAIL.COM,,FALSE,FALSE,FALSE,No GSV within radius,Oscar ,TRUE,TRUE,FARMACIAS SIMILARES,,,,
7535494,FARMACIA SAN JUAN,,464112,Farmacias con minisúper,0 a 5 personas,CUARTA SUR PONIENTE,CENTRAL SUR,0,30462,7,Chiapas,9,Arriaga,41,Emiliano Zapata,173,5,16.16960666,-94.06759495,2019-11,9661046811,,,FALSE,FALSE,TRUE,No GSV within radius,Oscar ,TRUE,FALSE,,,,,
8055426,FARMACIA MEXICO,,464111,Farmacias sin minisúper,0 a 5 personas,FRANCISCO SARABIA,RIO GRANDE,218,30450,7,Chiapas,9,Arriaga,1,Arriaga,243,7,16.24112582,-93.88711969,2019-11,9666621952,,,FALSE,FALSE,FALSE,No GSV within radius,Oscar ,FALSE,FALSE,,,,,
8239524,FARMACIA RUBI,,464111,Farmacias sin minisúper,0 a 5 personas,PRIMERA ORIENTE,PRIMERA SUR,0,30450,7,Chiapas,9,Arriaga,1,Arriaga,014A,1,16.23320388,-93.89992902,2019-11,,,,FALSE,FALSE,FALSE,No GSV within radius,Oscar ,TRUE,FALSE,,,,,
9298678,FARMACIAS DEL AHORRO CHS TXTN PRIMERA NORTE,COMERCIALIZADORA FARMACEUTICA DE CHIAPAS SAPI DE CV,464111,Farmacias sin minisúper,11 a 30 personas,SEGUNDA ORIENTE,Independencia,,30450,7,Chiapas,9,Arriaga,1,Arriaga,014A,17,16.23531997,-93.89807255,2020-11,,CLIENTES@FAHORRO.COM.MX,WWW.FAHORRO.COM,FALSE,FALSE,FALSE,No GSV within radius,Oscar ,FALSE,FALSE,,,,,
9410898,FARMACIAS DEL AHORRO CHS AR1N TAPACHULA 1A. NORTE,COMERCIALIZADORA FARMACEUTICA DE CHIAPAS SAPI DE CV,464111,Farmacias sin minisúper,11 a 30 personas,SEGUNDA ORIENTE,Primera Norte,7,30450,7,Chiapas,9,Arriaga,1,Arriaga,014A,17,16.23550608,-93.89831566,2024-05,,CLIENTES@FAHORRO.COM.MX,WWW.FAHORRO.COM,FALSE,FALSE,FALSE,No GSV within radius,Oscar ,TRUE,TRUE,FARMACIAS DEL AHORRO,,,FARMACIAS DEL AHORRO 1A. Norte,
9482506,FARMACIAS YZA SUC 0040 PARQUE ARRIAGA,FARMACON SA DE CV,464111,Farmacias sin minisúper,0 a 5 personas,SEGUNDA ORIENTE,Primera Norte,651,30450,7,Chiapas,9,Arriaga,1,Arriaga,014A,16,16.23585591,-93.89879237,2024-05,,ATENCIONACLIENTES@YZA.MX,WWW.YZA.MX,FALSE,FALSE,FALSE,No GSV within radius,Oscar ,TRUE,FALSE,,,,"16° 14' 9.0812"" N 93° 53' 55.6526"" W",
9548079,FARMACIA 24 HORAS,,464112,Farmacias con minisúper,0 a 5 personas,FRANCISCO SARABIA,RIO GRANDE,,30450,7,Chiapas,9,Arriaga,1,Arriaga,243,7,16.24016644,-93.88773667,2024-11,9661136722,,,TRUE,FALSE,FALSE,No GSV within radius,Oscar ,TRUE,FALSE,,,,,
9986118,FARMACIA BIOMEDICA,,464111,Farmacias sin minisúper,0 a 5 personas,PRIMERA ORIENTE,PRIMERA SUR,0,30450,7,Chiapas,9,Arriaga,1,Arriaga,014A,8,16.23392429,-93.9008868,2024-11,,,,TRUE,FALSE,FALSE,No GSV within radius,Oscar ,TRUE,TRUE,INDEPENDENT,,,"16° 14' 2.1275"" N 93° 54' 3.1925"" W",
10073946,FARMACIA DEL SUR,,464111,Farmacias sin minisúper,0 a 5 personas,PRIMERA SUR,PRIMERA ORIENTE,0,30450,7,Chiapas,9,Arriaga,1,Arriaga,014A,8,16.23325921,-93.9002809,2024-11,,,,FALSE,FALSE,FALSE,No GSV within radius,Oscar ,TRUE,TRUE,INDEPENDENT,,,"16° 13' 59.7331"" N 93° 54' 1.0112"" W",
10382491,FARMACIA ALFA MEDIC,,464111,Farmacias sin minisúper,0 a 5 personas,CENTRAL,TERCERA NORTE,0,30450,7,Chiapas,9,Arriaga,1,Arriaga,014A,11,16.23465814,-93.89861968,2024-11,,,,TRUE,FALSE,FALSE,No GSV within radius,Oscar ,TRUE,TRUE,INDEPENDENT,,,"16° 14' 4.7692"" N 93° 53' 55.0309"" W",
10866872,FARMACIA BIOMEDICA,,464111,Farmacias sin minisúper,0 a 5 personas,PRIMERA ORIENTE,PRIMERA SUR,0,30450,7,Chiapas,9,Arriaga,1,Arriaga,014A,1,16.23316483,-93.89987524,2024-11,,,,FALSE,FALSE,FALSE,No GSV within radius,Oscar ,TRUE,FALSE,,,,"16° 13' 59.3933"" N 93° 53' 59.5507"" W",
10992080,FARMA EXPRESS,,464111,Farmacias sin minisúper,0 a 5 personas,PRIMERA ORIENTE NORTE,SEGUNDA NORTE ORIENTE,0,30462,7,Chiapas,9,Arriaga,41,Emiliano Zapata,188,1,16.17360651,-94.06255541,2024-11,,,,FALSE,FALSE,FALSE,No GSV within radius,Oscar ,TRUE,FALSE,,,,"16° 10' 24.9834"" N 94° 3' 45.1994"" W",
11362514,FARMACIA NUCLEO MEDICO SAN MIGUEL,,464111,Farmacias sin minisúper,0 a 5 personas,PRIMERA ORIENTE SUR,CUARTA SUR ORIENTE,0,30462,7,Chiapas,9,Arriaga,41,Emiliano Zapata,173,4,16.1694825,-94.06578071,2024-11,,,,TRUE,FALSE,FALSE,No GSV within radius,Oscar ,TRUE,TRUE,INDEPENDENT,,,"16° 10' 10.137"" N 94° 3' 56.8105"" W",
11632853,FARMACIA 4 HERMANOS,,464111,Farmacias sin minisúper,0 a 5 personas,CENTRAL NORTE,PRIMERA NORTE PONIENTE,0,30462,7,Chiapas,9,Arriaga,41,Emiliano Zapata,188,5,16.17410131,-94.06353583,2024-11,,,,TRUE,FALSE,FALSE,No GSV within radius,Oscar ,FALSE,FALSE,,,,,
509554,FARMACIA SOLIDARIA,,464111,Farmacias sin minisúper,0 a 5 personas,IGNACIO ZARAGOZA,NINGUNO,0,30950,7,Chiapas,10,Bejucal de Ocampo,1,Bejucal de Ocampo,32,3,15.45595577,-92.15859518,2010-07,,,,FALSE,FALSE,FALSE,No GSV within radius,Oscar ,FALSE,FALSE,,TRUE,,,
440126,COMERCIO AL POR MENOR DE PRODUCTOS FARMACEUTICOS Y NATURISTA SIN NOMBRE,,464112,Farmacias con minisúper,0 a 5 personas,PRIMERA PONIENTE SUR,PRIMERA SUR PONIENTE,,30130,7,Chiapas,11,Bella Vista,1,Bella Vista,003A,13,15.5821614,-92.24624498,2014-12,,,,FALSE,FALSE,FALSE,No GSV within radius,Oscar ,FALSE,FALSE,,,,,
508797,FARMACIA EL CENTRO,,464111,Farmacias sin minisúper,0 a 5 personas,CENTRAL SUR,TERCERA SUR ORIENTE,0,30130,7,Chiapas,11,Bella Vista,1,Bella Vista,003A,11,15.58173113,-92.24536194,2010-07,,,,FALSE,FALSE,FALSE,No GSV within radius,Oscar ,TRUE,FALSE,,,,,
7735022,FARMACIA JOSUE,,464111,Farmacias sin minisúper,0 a 5 personas,CENTRAL SUR,CENTRAL PONIENTE,,30130,7,Chiapas,11,Bella Vista,1,Bella Vista,003A,3,15.58325954,-92.24536232,2019-11,,,,FALSE,FALSE,FALSE,No GSV within radius,Oscar ,FALSE,FALSE,,,,,
7735027,FARMACIA ANTIDOTO,,464111,Farmacias sin minisúper,0 a 5 personas,PRIMERA SUR PONIENTE,PRIMERA PONIENTE SUR,,30130,7,Chiapas,11,Bella Vista,1,Bella Vista,003A,3,15.58256394,-92.24555383,2019-11,,,,FALSE,FALSE,FALSE,No GSV within radius,Oscar ,TRUE,FALSE,,,,,
8055921,CONSULTORIO NATURISTA RAICES DE LA INDIA,,464111,Farmacias sin minisúper,0 a 5 personas,PRIMERA SUR PONIENTE,CENTRAL SUR,,30130,7,Chiapas,11,Bella Vista,1,Bella Vista,003A,12,15.58248169,-92.2456772,2019-11,,,,FALSE,FALSE,FALSE,No GSV within radius,Oscar ,FALSE,FALSE,,,,,
9254975,FARMACIA BELLAVISTA,,464111,Farmacias sin minisúper,0 a 5 personas,CENTRAL SUR,TERCERA SUR ORIENTE,,30130,7,Chiapas,11,Bella Vista,1,Bella Vista,003A,11,15.5824497,-92.24531352,2020-11,,,,FALSE,FALSE,FALSE,No GSV within radius,Oscar ,FALSE,FALSE,,,,,
425434,FARMACRUZ,,464111,Farmacias sin minisúper,0 a 5 personas,CUARTA PONIENTE SUR,CUARTA SUR PONIENTE,0,29130,7,Chiapas,12,Berriozábal,1,Berriozábal,111,37,16.79650566,-93.27635371,2014-12,,,,FALSE,FALSE,FALSE,No GSV within radius,Oscar ,TRUE,FALSE,,,,,
426237,DISPENSARIO MEDICO EL SAMARITANO,,464112,Farmacias con minisúper,0 a 5 personas,SEXTA PONIENTE NORTE,SEGUNDA NORTE PONIENTE,0,29130,7,Chiapas,12,Berriozábal,1,Berriozábal,008A,48,16.80227568,-93.27731232,2014-12,9614553125,,,FALSE,FALSE,FALSE,No GSV within radius,Oscar ,TRUE,FALSE,,,,,
476136,FARMACIA ESPERANZA,,464111,Farmacias sin minisúper,0 a 5 personas,CENTRAL SUR,PRIMERA SUR ORIENTE,,29130,7,Chiapas,12,Berriozábal,1,Berriozábal,94,12,16.79902872,-93.27220519,2010-07,,,,FALSE,FALSE,FALSE,No GSV within radius,Oscar ,TRUE,FALSE,,,,,
477165,FARMACIA EL FENIX,,464111,Farmacias sin minisúper,0 a 5 personas,PRIMERA ORIENTE SUR,PRIMERA SUR ORIENTE,0,29130,7,Chiapas,12,Berriozábal,1,Berriozábal,94,18,16.79918156,-93.27126632,2010-07,,,,FALSE,TRUE,FALSE,No GSV within radius,Oscar ,TRUE,FALSE,,,,,
477178,FARMACIA ALI,,464112,Farmacias con minisúper,0 a 5 personas,CENTRAL ORIENTE,CENTRAL ORIENTE,240,29130,7,Chiapas,12,Berriozábal,1,Berriozábal,94,23,16.79911316,-93.26994724,2010-07,9613906574,,,TRUE,FALSE,FALSE,No GSV within radius,Oscar ,TRUE,TRUE,INDEPENDENT,,,,
6299019,FARMACIA DEL PARQUE,,464111,Farmacias sin minisúper,0 a 5 personas,PRIMERA NORTE PONIENTE,CENTRAL NORTE,0,,7,Chiapas,12,Berriozábal,1,Berriozábal,94,9,16.80046567,-93.27227616,2010-07,9686890021,FADRIQUEMANCILLA@GMAIL.COM,,FALSE,TRUE,FALSE,No GSV within radius,Oscar ,TRUE,FALSE,,,,,
7458300,INSUMOS MAS MEDICOS,,464111,Farmacias sin minisúper,0 a 5 personas,JOAQUIN MIGUEL GUTIERREZ,DECIMA SEGUNDA PONIENTE NORTE,0,29130,7,Chiapas,12,Berriozábal,1,Berriozábal,179,42,16.80822006,-93.2798557,2019-11,,,,FALSE,FALSE,FALSE,No GSV within radius,Oscar ,TRUE,FALSE,,,,,
7458310,FARMACIA ABC,,464111,Farmacias sin minisúper,0 a 5 personas,SEGUNDA SUR PONIENTE,SEGUNDA PONIENTE SUR,0,29130,7,Chiapas,12,Berriozábal,1,Berriozábal,107,13,16.79801196,-93.27490692,2019-11,,,,FALSE,FALSE,FALSE,No GSV within radius,Oscar ,TRUE,FALSE,,,,,
8021487,FARMACIA FARMACRUZ,,464111,Farmacias sin minisúper,0 a 5 personas,PRIMERA NORTE PONIENTE,CENTRAL NORTE,0,29130,7,Chiapas,12,Berriozábal,1,Berriozábal,94,9,16.80051074,-93.27265583,2019-11,9611311258,,,FALSE,FALSE,FALSE,No GSV within radius,Oscar ,TRUE,FALSE,,,,,
8021897,FARMACIA MIES,,464111,Farmacias sin minisúper,0 a 5 personas,QUINTA SUR PONIENTE,SEGUNDA PONIENTE SUR,32,29180,7,Chiapas,12,Berriozábal,1,Berriozábal,111,18,16.7953862,-93.27514804,2019-11,,,,FALSE,FALSE,FALSE,No GSV within radius,Oscar ,TRUE,TRUE,INDEPENDENT,,,,
8264189,FARMACIAS SIMILARES,,464111,Farmacias sin minisúper,0 a 5 personas,CENTRAL ORIENTE,CUARTA ORIENTE SUR,0,29130,7,Chiapas,12,Berriozábal,1,Berriozábal,94,34,16.79831179,-93.26807807,2019-11,9616561105,IRMA_CARBALLIDO@HOTMAIL.COM,,FALSE,FALSE,FALSE,No GSV within radius,Oscar ,TRUE,TRUE,FARMACIAS SIMILARES,,,,
8265045,FARMACIA EL BUEN SAMARITANO,,464111,Farmacias sin minisúper,0 a 5 personas,JOAQUIN MIGUEL GUTIERREZ,DECIMA SEGUNDA PONIENTE NORTE,0,29130,7,Chiapas,12,Berriozábal,1,Berriozábal,179,42,16.80889579,-93.2804325,2019-11,9611997760,,,FALSE,FALSE,FALSE,No GSV within radius,Oscar ,TRUE,FALSE,,,,,
8620882,FARMACIAS SIMILARES,COMERCIALIZADORA FAMPESA SA DE CV,464111,Farmacias sin minisúper,0 a 5 personas,BERRIOZÁBAL,PENIPAK,,,7,Chiapas,12,Berriozábal,746,Ciudad Maya,412,20,16.73704385,-93.31362801,2019-11,,CIUDADMAYA_FAMPESA@HOTMAIL.COM,,FALSE,FALSE,FALSE,No GSV within radius,Oscar ,TRUE,TRUE,FARMACIAS SIMILARES,,,,
9003956,FARMACIA DIVINA PROVIDENCIA,,464111,Farmacias sin minisúper,0 a 5 personas,QUINTA PONIENTE SUR,DECIMA TERCERA SUR PONIENTE,0,29130,7,Chiapas,12,Berriozábal,1,Berriozábal,015A,32,16.78931278,-93.27826316,2019-11,9612385492,,,FALSE,FALSE,FALSE,No GSV within radius,Oscar ,FALSE,FALSE,,TRUE,,,
9397419,FARMACIAS SIMILARES BERRIOZABAL 1,GOYOMA SA DE CV,464111,Farmacias sin minisúper,0 a 5 personas,CENTRAL PONIENTE,Segunda Poniente Sur,100,29130,7,Chiapas,12,Berriozábal,1,Berriozábal,94,4,16.79956168,-93.27338553,2023-11,,CGEN@GOYOMA.COM,,FALSE,FALSE,FALSE,No GSV within radius,Oscar ,TRUE,TRUE,FARMACIAS SIMILARES,,,Farmacias Similares Berriozábal,
9399279,FARMACIAS SIMILARES  BERRIOZABAL 2,GOYOMA SA DE CV,464111,Farmacias sin minisúper,0 a 5 personas,CENTRAL ORIENTE,Quinta Oriente Sur,,29130,7,Chiapas,12,Berriozábal,1,Berriozábal,94,34,16.79832945,-93.26816243,2023-11,,CGEN@GOYOMA.COM,,FALSE,FALSE,FALSE,No GSV within radius,Oscar ,TRUE,TRUE,FARMACIAS SIMILARES,,,,
9445193,FARMACIA GUADALAJARA,FARMACIA GUADALAJARA SA DE CV,464112,Farmacias con minisúper,11 a 30 personas,CENTRAL PONIENTE,Cuarta Poniente Norte,355,29130,7,Chiapas,12,Berriozábal,1,Berriozábal,94,14,16.79995214,-93.27534922,2023-11,9616127304,JESPINOZA@FRAGUA.COM.MX,WWW.FARMACIASGUADALAJARA.COM.MX,FALSE,FALSE,FALSE,No GSV within radius,Oscar ,TRUE,TRUE,FARMACIAS GUADALAJARA,,,Farmacia Guadalajara berriozabal chiapas,
9465087,FARMACIAS DEL AHORRO CHS TXBE TUXTLA BERRIOZABAL,COMERCIALIZADORA FARMACEUTICA DE CHIAPAS SAPI DE CV,464111,Farmacias sin minisúper,11 a 30 personas,CENTRAL PONIENTE,Segunda Poniente Norte,,29130,7,Chiapas,12,Berriozábal,1,Berriozábal,94,1,16.79966901,-93.27318525,2024-05,,CLIENTES@FAHORRO.COM.MX,WWW.FAHORRO.COM,FALSE,FALSE,FALSE,No GSV within radius,Oscar ,TRUE,TRUE,FARMACIAS DEL AHORRO,,,FARMACIAS DEL AHORRO,
9468569,FARMACIAS SANTACRUZ,SUPER FARMACIAS DEL SURESTE SA DE CV,464112,Farmacias con minisúper,0 a 5 personas,PRIMERA SUR ORIENTE,CENTRAL SUR,102,,7,Chiapas,12,Berriozábal,1,Berriozábal,107,7,16.79747446,-93.27025061,2023-11,,FCIA_SANTACRUZ@YAHOO.COM,,FALSE,FALSE,FALSE,No GSV within radius,Oscar ,FALSE,FALSE,,,,,
9474138,FARMACIAS YZA SUC 0021 BERRIOZABAL CENTRO,FARMACON SA DE CV,464111,Farmacias sin minisúper,0 a 5 personas,CENTRAL ORIENTE,Central Sur,119,29130,7,Chiapas,12,Berriozábal,1,Berriozábal,94,12,16.79939828,-93.27212251,2024-05,,ATENCIONACLIENTES@YZA.MX,WWW.YZA.MX,FALSE,FALSE,FALSE,No GSV within radius,Oscar ,TRUE,FALSE,,,,,
9568857,FARMACIA EL TREBOL,,464111,Farmacias sin minisúper,0 a 5 personas,TERCERA PONIENTE NORTE,CUARTA NORTE PONIENTE,0,29130,7,Chiapas,12,Berriozábal,1,Berriozábal,008A,3,16.80301647,-93.27437456,2024-11,9616583453,,,FALSE,TRUE,FALSE,No GSV within radius,Oscar ,TRUE,FALSE,,,,,
9614296,FARMACIA LA PIEDAD,,464111,Farmacias sin minisúper,0 a 5 personas,JOAQUIN MIGUEL GUTIERREZ,DECIMA SEGUNDA PONIENTE NORTE,,29130,7,Chiapas,12,Berriozábal,1,Berriozábal,179,42,16.80861867,-93.28017781,2024-11,,,,FALSE,FALSE,FALSE,No GSV within radius,Oscar ,TRUE,FALSE,,,,,
10030357,FARMACIA BIENESTAR,,464111,Farmacias sin minisúper,0 a 5 personas,PRIMERA NORTE ORIENTE,PRIMERA ORIENTE NORTE,0,29130,7,Chiapas,12,Berriozábal,1,Berriozábal,94,11,16.80030009,-93.27199337,2024-11,,,,FALSE,FALSE,FALSE,No GSV within radius,Oscar ,TRUE,FALSE,,,,,
10352416,FARMACIA MAYA,,464112,Farmacias con minisúper,0 a 5 personas,PENIPAK,TENAM,0,29130,7,Chiapas,12,Berriozábal,746,Ciudad Maya,412,15,16.73761362,-93.31349303,2024-11,9611377014,,,FALSE,FALSE,FALSE,No GSV within radius,Oscar ,FALSE,FALSE,,,,,
10359889,FARMACIA BASICOS DE LA SALUD,,464112,Farmacias con minisúper,0 a 5 personas,TERCERA PONIENTE NORTE,DECIMA NORTE PONIENTE,1037,29130,7,Chiapas,12,Berriozábal,1,Berriozábal,126,1,16.80884556,-93.27356474,2024-11,9681061558,,,FALSE,FALSE,FALSE,No GSV within radius,Oscar ,TRUE,FALSE,,,,,
10599517,FARMACIA EL BUEN SAMARITANO,,464111,Farmacias sin minisúper,0 a 5 personas,TERCERA PONIENTE NORTE,DECIMA QUINTA NORTE PONIENTE,0,29130,7,Chiapas,12,Berriozábal,1,Berriozábal,179,9,16.81219684,-93.2730524,2024-11,9611443313,,,FALSE,FALSE,FALSE,No GSV within radius,Oscar ,FALSE,FALSE,,TRUE,,,
10666694,FARMACIA OFELIA,,464112,Farmacias con minisúper,0 a 5 personas,JOAQUIN MIGUEL GUTIERREZ,OCTAVA NORTE PONIENTE,,29130,7,Chiapas,12,Berriozábal,1,Berriozábal,179,39,16.80756211,-93.27942796,2024-11,,,,FALSE,FALSE,FALSE,No GSV within radius,Oscar ,TRUE,FALSE,,,,,
10902470,FARMATODO,,464111,Farmacias sin minisúper,0 a 5 personas,TERCERA PONIENTE NORTE,DECIMA NORTE PONIENTE,340,29130,7,Chiapas,12,Berriozábal,1,Berriozábal,126,3,16.80795272,-93.27360244,2024-11,9613173333,,,FALSE,FALSE,FALSE,No GSV within radius,Oscar ,TRUE,FALSE,,,,,
354674,FARMACIAS SIMILARES,,464111,Farmacias sin minisúper,0 a 5 personas,SEGUNDA SUR PONIENTE,TERCERA PONIENTE SUR,,29770,7,Chiapas,13,Bochil,1,Bochil,53,19,16.99416831,-92.89292964,2010-07,9196530049,MARCOADF@PRODIGY.NET.MX,,FALSE,FALSE,FALSE,No GSV within radius,Oscar ,TRUE,TRUE,FARMACIAS SIMILARES,,,,
355266,FARMACIA PARIS,,464111,Farmacias sin minisúper,0 a 5 personas,PRIMERA SUR ORIENTE,NINGUNO,0,29770,7,Chiapas,13,Bochil,1,Bochil,68,55,16.99432364,-92.88605626,2010-07,,,,FALSE,FALSE,FALSE,No GSV within radius,Oscar ,TRUE,FALSE,,,,,
355290,FARMACIA SANTA MARTHA,,464111,Farmacias sin minisúper,0 a 5 personas,CENTRAL SUR,SEGUNDA SUR ORIENTE,0,29770,7,Chiapas,13,Bochil,1,Bochil,68,4,16.99538837,-92.8901504,2010-07,,,,FALSE,FALSE,FALSE,No GSV within radius,Oscar ,TRUE,FALSE,,,,,
6961075,UNIDAD MEDICA SAN MARTIN,,464111,Farmacias sin minisúper,0 a 5 personas,OCTAVA PONIENTE SUR,CENTRAL PONIENTE,0,29770,7,Chiapas,13,Bochil,1,Bochil,53,52,16.99614704,-92.89737649,2019-11,9191622261,,,FALSE,FALSE,FALSE,No GSV within radius,Oscar ,TRUE,FALSE,,,,MIGHT BE A CLINIC WITHOUT A PHARMACY,
8273734,MINI FARMACIA SIN NOMBRE,,464111,Farmacias sin minisúper,0 a 5 personas,CENTRAL SUR,SEGUNDA SUR ORIENTE,0,29770,7,Chiapas,13,Bochil,1,Bochil,68,4,16.99470383,-92.89034606,2019-11,9611697922,,,FALSE,FALSE,FALSE,No GSV within radius,Oscar ,TRUE,FALSE,,,,FARMACIAS DEL AHORRO Bochil,
8273736,FARMACIA YIREH,,464111,Farmacias sin minisúper,0 a 5 personas,SEGUNDA SUR ORIENTE,NINGUNO,,29770,7,Chiapas,13,Bochil,1,Bochil,68,21,16.99453667,-92.89042291,2019-11,,,,FALSE,TRUE,FALSE,No GSV within radius,Oscar ,TRUE,FALSE,,,,,
8701811,CLINICA MEDICA KAIROS,,464111,Farmacias sin minisúper,0 a 5 personas,PONIENTE,SEPTIMA PONIENTE NORTE,0,29770,7,Chiapas,13,Bochil,1,Bochil,53,32,16.99695676,-92.89567785,2019-11,9191080760,,,FALSE,FALSE,FALSE,No GSV within radius,Oscar ,TRUE,FALSE,,,,,
9921734,FARMACIA HUMANISTA,,464111,Farmacias sin minisúper,0 a 5 personas,QUINTA ORIENTE NORTE,CARRETERA A ZAPATA,0,29770,7,Chiapas,13,Bochil,1,Bochil,104,34,16.99784148,-92.88456388,2024-11,,,,FALSE,FALSE,FALSE,No GSV within radius,Oscar ,TRUE,FALSE,,,,,
9945490,FARMACIA LA ESPERANZA,,464112,Farmacias con minisúper,0 a 5 personas,PRIMERA NORTE ORIENTE,CUARTA ORIENTE NORTE,,29770,7,Chiapas,13,Bochil,1,Bochil,68,49,16.99590393,-92.88571673,2024-11,,,,FALSE,FALSE,FALSE,No GSV within radius,Oscar ,TRUE,FALSE,,,,,
11604687,FARMACIA SALUD Y VIDA,,464112,Farmacias con minisúper,0 a 5 personas,SEXTA PONIENTE SUR,CENTRAL PONIENTE,0,29770,7,Chiapas,13,Bochil,1,Bochil,53,35,16.99621247,-92.89637568,2024-11,,,,FALSE,FALSE,FALSE,No GSV within radius,Oscar ,TRUE,FALSE,,,,,
355042,FARMACIA GUADALUPANA,,464111,Farmacias sin minisúper,0 a 5 personas,CENTRAL HIDALGO,ARROYO,0,29840,7,Chiapas,14,El Bosque,1,El Bosque,31,1,17.06195192,-92.72124309,2010-07,9191019105,,,FALSE,FALSE,FALSE,No GSV within radius,Oscar ,FALSE,FALSE,,TRUE,,,
355083,FARMACIA SAN JUAN,,464111,Farmacias sin minisúper,0 a 5 personas,SAN JUAN,CENTRAL HIDALGO,0,29840,7,Chiapas,14,El Bosque,1,El Bosque,31,8,17.06276464,-92.7204923,2010-07,,,,FALSE,FALSE,FALSE,No GSV within radius,Oscar ,FALSE,FALSE,,TRUE,,,
6976922,AMBAR FARMACIAS,,464112,Farmacias con minisúper,0 a 5 personas,NINGUNO,PROGRESO ORIENTE SUR,,29840,7,Chiapas,14,El Bosque,1,El Bosque,46,6,17.06360269,-92.72101903,2019-11,,,,FALSE,TRUE,FALSE,No GSV within radius,Oscar ,TRUE,TRUE,INDEPENDENT,,,,
6976968,FARMACIA SANTA ESPERANZA,,464111,Farmacias sin minisúper,0 a 5 personas,NINGUNO,ARROYO,0,29840,7,Chiapas,14,El Bosque,1,El Bosque,31,33,17.06299643,-92.72196843,2019-11,,,,FALSE,FALSE,FALSE,No GSV within radius,Oscar ,TRUE,FALSE,,,,,
6976978,FARMACIA LUNA,,464112,Farmacias con minisúper,0 a 5 personas,CENTRAL HIDALGO,ARROYO,,29840,7,Chiapas,14,El Bosque,1,El Bosque,31,17,17.06224574,-92.72116686,2019-11,9612500103,DAI_23_89@HOTMAIL.COM,,FALSE,FALSE,FALSE,No GSV within radius,Oscar ,TRUE,FALSE,,,,,
7114454,FARMACIA DE GENERICOS Y SIMILARES EL CEIBO,,464111,Farmacias sin minisúper,0 a 5 personas,CENTRAL HIDALGO,PROGRESO ORIENTE SUR,,29840,7,Chiapas,14,El Bosque,1,El Bosque,31,19,17.06330872,-92.72051208,2019-11,,,,FALSE,FALSE,FALSE,No GSV within radius,Oscar ,TRUE,FALSE,,,,,
9681226,FARMACIA SAN RAMON,,464111,Farmacias sin minisúper,0 a 5 personas,NINGUNO,CENTRAL HIDALGO,0,29840,7,Chiapas,14,El Bosque,1,El Bosque,31,25,17.06356668,-92.72000559,2024-11,,,,FALSE,FALSE,FALSE,No GSV within radius,Oscar ,FALSE,FALSE,,TRUE,,,
11022679,EMMANUEL FARMACIA,,464111,Farmacias sin minisúper,0 a 5 personas,NINGUNO,NICOLAS BRAVO,0,29840,7,Chiapas,14,El Bosque,1,El Bosque,31,25,17.06369986,-92.72023629,2024-11,,,,FALSE,FALSE,FALSE,No GSV within radius,Oscar ,FALSE,FALSE,,,,,
11033743,FARMACIA EL BOSQUE,,464111,Farmacias sin minisúper,0 a 5 personas,ALDAMA,ALDAMA,0,29840,7,Chiapas,14,El Bosque,1,El Bosque,31,40,17.06253907,-92.72035699,2024-11,,,,FALSE,FALSE,FALSE,No GSV within radius,Oscar ,FALSE,FALSE,,TRUE,,,
11404540,FARMACIA LA PROVIDENCIA,,464111,Farmacias sin minisúper,0 a 5 personas,INDEPENDENCIA ORIENTE SUR,NINGUNO,0,29840,7,Chiapas,14,El Bosque,1,El Bosque,46,6,17.06394029,-92.72164531,2024-11,,,,FALSE,FALSE,FALSE,No GSV within radius,Oscar ,FALSE,FALSE,,TRUE,,,
455839,FARMACIA ARIES,,464111,Farmacias sin minisúper,0 a 5 personas,NINGUNO,NINGUNO,0,30893,7,Chiapas,15,Cacahoatán,52,Unión Roja,24,20,15.04717473,-92.21810922,2014-12,,,,FALSE,FALSE,FALSE,No GSV within radius,Oscar ,TRUE,FALSE,,,,,
506430,FARMACIA Y REGALOS SANTA FE,,464111,Farmacias sin minisúper,0 a 5 personas,NINGUNO,NINGUNO,,30893,7,Chiapas,15,Cacahoatán,52,Unión Roja,24,27,15.04611539,-92.21531849,2010-07,,,,FALSE,FALSE,FALSE,No GSV within radius,Oscar ,TRUE,FALSE,,,,,
508445,FARMACIA JESUS DE NAZARET,,464112,Farmacias con minisúper,0 a 5 personas,CENTRAL NORTE,DECIMA SEPTIMA ORIENTE,0,30890,7,Chiapas,15,Cacahoatán,1,Cacahoatán,62,38,14.99618789,-92.16469559,2010-07,,,,FALSE,FALSE,FALSE,No GSV within radius,Oscar ,FALSE,FALSE,,,,,
508540,FARMACIAS SUPER ECONOMICA LA CENTRAL,,464111,Farmacias sin minisúper,0 a 5 personas,CENTRAL NORTE,SEPTIMA ORIENTE,0,30890,7,Chiapas,15,Cacahoatán,1,Cacahoatán,62,3,14.99378857,-92.16600524,2010-07,,,,FALSE,FALSE,FALSE,No GSV within radius,Oscar ,TRUE,TRUE,INDEPENDENT,,,,
508543,FARMACIA DEL MERCADO PLUS,,464112,Farmacias con minisúper,0 a 5 personas,CENTRAL NORTE,SEPTIMA ORIENTE,56,30890,7,Chiapas,15,Cacahoatán,1,Cacahoatán,62,3,14.99413927,-92.16585997,2010-07,9626220218,,,FALSE,TRUE,FALSE,No GSV within radius,Oscar ,TRUE,FALSE,,,,,
508565,FARMACIA EMMANUEL,,464111,Farmacias sin minisúper,0 a 5 personas,CENTRAL NORTE,TERCERA PONIENTE,0,30890,7,Chiapas,15,Cacahoatán,1,Cacahoatán,81,24,14.99209442,-92.16681085,2010-07,,,,FALSE,FALSE,FALSE,No GSV within radius,Oscar ,FALSE,FALSE,,,,,
6867657,FARMACIA SIMILARES CACAHOATAN 1,GOYOMA SA DE CV,464111,Farmacias sin minisúper,0 a 5 personas,CENTRAL NORTE,Décima Quinta Oriente,58,30890,7,Chiapas,15,Cacahoatán,1,Cacahoatán,62,22,14.99574623,-92.16501139,2019-04,,CGEN@GOYOMA.COM,,FALSE,FALSE,FALSE,No GSV within radius,Oscar ,TRUE,TRUE,FARMACIAS SIMILARES,,,,
6880139,FARMACIAS SIMILARES CACAHOATAN 2,GOYOMA SA DE CV,464111,Farmacias sin minisúper,0 a 5 personas,CENTRAL SUR,Cuarta Oriente,11,30890,7,Chiapas,15,Cacahoatán,1,Cacahoatán,81,12,14.99090771,-92.16722724,2019-04,,CGEN@GOYOMA.COM,,FALSE,TRUE,FALSE,No GSV within radius,Oscar ,TRUE,TRUE,FARMACIAS SIMILARES,,,,
7072230,FARMACIA LA MAS BARATA,,464112,Farmacias con minisúper,0 a 5 personas,CENTRAL SUR,CUARTA ORIENTE,11,30890,7,Chiapas,15,Cacahoatán,1,Cacahoatán,81,13,14.99030013,-92.16746594,2019-11,,,,TRUE,FALSE,FALSE,No GSV within radius,Oscar ,TRUE,TRUE,INDEPENDENT,,,,
7072311,FARMACIA ANGELES,,464111,Farmacias sin minisúper,0 a 5 personas,NINGUNO,NINGUNO,0,30893,7,Chiapas,15,Cacahoatán,43,Salvador Urbina,325,18,15.03755387,-92.20797442,2019-11,,,,FALSE,FALSE,FALSE,No GSV within radius,Oscar ,TRUE,FALSE,,,,FARMACIA Los Angeles,
7072769,FARMACIA JOSHUA,BRENDA MARIAM GARCIA GOMEZ,464111,Farmacias sin minisúper,0 a 5 personas,VIGESIMA PRIMERA ORIENTE,CENTRAL NORTE,,30890,7,Chiapas,15,Cacahoatán,1,Cacahoatán,147,29,14.99767251,-92.16351134,2019-11,,,,FALSE,FALSE,FALSE,No GSV within radius,Oscar ,FALSE,FALSE,,,,,
7072953,MINIFARMACIA SIN NOMBRE,,464111,Farmacias sin minisúper,0 a 5 personas,NINGUNO,NINGUNO,0,30893,7,Chiapas,15,Cacahoatán,52,Unión Roja,24,7,15.04757723,-92.21738548,2019-11,,,,FALSE,FALSE,FALSE,No GSV within radius,Oscar ,FALSE,FALSE,,,,,
8093359,MEDICAMENTOS SIN NOMBRE,,464111,Farmacias sin minisúper,0 a 5 personas,CENTRAL ORIENTE,PRIMERA SUR,14,30890,7,Chiapas,15,Cacahoatán,1,Cacahoatán,81,28,14.99121205,-92.16627997,2019-11,,,,FALSE,FALSE,FALSE,No GSV within radius,Oscar ,FALSE,FALSE,,,,,
8229120,FARMACIA MAS ECONOMICA REY JESUSCAR,,464111,Farmacias sin minisúper,0 a 5 personas,PRIMERA NORTE,DECIMA QUINTA ORIENTE,0,30890,7,Chiapas,15,Cacahoatán,1,Cacahoatán,62,23,14.99528065,-92.16460212,2019-11,,,,FALSE,FALSE,FALSE,No GSV within radius,Oscar ,TRUE,FALSE,,,,,
9471894,FARMACIAS YZA SUC 9016 CACAHOATAN TERMINAL,FARMACON SA DE CV,464111,Farmacias sin minisúper,0 a 5 personas,CENTRAL NORTE,Décima Quinta Oriente,188,30890,7,Chiapas,15,Cacahoatán,1,Cacahoatán,62,38,14.99623844,-92.16465638,2024-05,,ATENCIONACLIENTES@YZA.MX,WWW.YZA.MX,FALSE,FALSE,FALSE,No GSV within radius,Oscar ,TRUE,FALSE,,,,yza FARMACIAS,
9674704,FARMACIA SAN JUAN DE DIOS,,464111,Farmacias sin minisúper,0 a 5 personas,SEPTIMA NORTE,QUINTA ORIENTE,0,30890,7,Chiapas,15,Cacahoatán,1,Cacahoatán,77,13,14.99244894,-92.16402361,2024-11,,,,FALSE,FALSE,FALSE,No GSV within radius,Oscar ,FALSE,FALSE,,,,,
9687227,FARMACIA VALERIA,,464111,Farmacias sin minisúper,0 a 5 personas,ZARAGOZA,NINGUNO,0,30893,7,Chiapas,15,Cacahoatán,52,Unión Roja,24,2,15.04647677,-92.21655414,2024-11,,,,FALSE,FALSE,FALSE,No GSV within radius,Oscar ,TRUE,FALSE,,,,,
9698738,FARMACIA SUPER ECONOMICA,,464111,Farmacias sin minisúper,0 a 5 personas,DECIMA TERCERA ORIENTE,PRIMERA NORTE,2,30890,7,Chiapas,15,Cacahoatán,1,Cacahoatán,62,22,14.99514976,-92.1649358,2024-11,,,,TRUE,FALSE,FALSE,No GSV within radius,Oscar ,TRUE,FALSE,,,,,
9977124,FARMACIA MONTEJO,,464111,Farmacias sin minisúper,0 a 5 personas,DIONICIO MONTEJO,NINGUNO,0,30892,7,Chiapas,15,Cacahoatán,20,Faja de Oro,382,800,15.02986663,-92.1584583,2024-11,,,,FALSE,FALSE,FALSE,No GSV within radius,Oscar ,FALSE,FALSE,,TRUE,,,
10333383,FARMACIA ELIAZAR,,464111,Farmacias sin minisúper,0 a 5 personas,NINGUNO,NINGUNO,0,30893,7,Chiapas,15,Cacahoatán,43,Salvador Urbina,325,9,15.03651409,-92.20697205,2024-11,9621296449,,,FALSE,FALSE,FALSE,No GSV within radius,Oscar ,FALSE,FALSE,,TRUE,,,
10480199,FARMACIA SAN JOSE,,464111,Farmacias sin minisúper,0 a 5 personas,NINGUNO,NINGUNO,1,30893,7,Chiapas,15,Cacahoatán,43,Salvador Urbina,325,42,15.03792625,-92.2067985,2024-11,,,,FALSE,FALSE,FALSE,No GSV within radius,Oscar ,TRUE,TRUE,INDEPENDENT,,,,
10494482,FARMACIA SAN FRANCISCO,,464111,Farmacias sin minisúper,0 a 5 personas,LAZARO CARDENAS,PAULO GARCIA,0,30892,7,Chiapas,15,Cacahoatán,20,Faja de Oro,382,6,15.03162329,-92.15656316,2024-11,,,,FALSE,FALSE,FALSE,No GSV within radius,Oscar ,TRUE,TRUE,INDEPENDENT,,,,
10522000,FARMACIA SAN VICENTE DE PAUL,,464111,Farmacias sin minisúper,0 a 5 personas,SEGUNDA NORTE,TERCERA PONIENTE,0,30890,7,Chiapas,15,Cacahoatán,1,Cacahoatán,81,24,14.99240074,-92.16721559,2024-11,,,,FALSE,FALSE,FALSE,No GSV within radius,Oscar ,TRUE,TRUE,INDEPENDENT,,,,
10635541,FARMACIA OHANA,,464111,Farmacias sin minisúper,0 a 5 personas,TERCERA PONIENTE,SEGUNDA NORTE,0,30890,7,Chiapas,15,Cacahoatán,1,Cacahoatán,81,23,14.9927693,-92.16733786,2024-11,,,,FALSE,FALSE,FALSE,No GSV within radius,Oscar ,TRUE,TRUE,INDEPENDENT,,,,
10698393,FARMACIA SIN NOMBRE,,464111,Farmacias sin minisúper,0 a 5 personas,NINGUNO,CENTRAL NORTE,0,30890,7,Chiapas,15,Cacahoatán,1,Cacahoatán,132,12,14.9991545,-92.16392052,2024-11,,,,FALSE,FALSE,FALSE,No GSV within radius,Oscar ,FALSE,FALSE,,,,,
10924586,FARMACIA JAIME,,464111,Farmacias sin minisúper,0 a 5 personas,CENTRAL ORIENTE,TERCERA NORTE,0,30890,7,Chiapas,15,Cacahoatán,1,Cacahoatán,81,27,14.99131501,-92.16633758,2024-11,,,,FALSE,FALSE,FALSE,No GSV within radius,Oscar ,TRUE,FALSE,,,,,
10983782,FARMACIA SAN RAFAEL,,464111,Farmacias sin minisúper,0 a 5 personas,QUINTA SUR,SEXTA ORIENTE,0,30890,7,Chiapas,15,Cacahoatán,1,Cacahoatán,109,38,14.98925508,-92.16598259,2024-11,9621919705,,,FALSE,FALSE,FALSE,No GSV within radius,Oscar ,TRUE,FALSE,,,,CLINIC,
11100205,FARMACIA TORREFUERTE,,464111,Farmacias sin minisúper,0 a 5 personas,SEGUNDA SUR,SEXTA PONIENTE,29,30890,7,Chiapas,15,Cacahoatán,1,Cacahoatán,96,24,14.989661,-92.16841944,2024-11,,,,FALSE,FALSE,FALSE,No GSV within radius,Oscar ,TRUE,TRUE,INDEPENDENT,,,,
11110345,FARMACIA ECONOMICA SIN NOMBRE,,464111,Farmacias sin minisúper,0 a 5 personas,CENTRAL NORTE,CENTRAL ORIENTE,0,30890,7,Chiapas,15,Cacahoatán,1,Cacahoatán,81,10,14.99168684,-92.1669138,2024-11,,,,FALSE,FALSE,FALSE,No GSV within radius,Oscar ,FALSE,FALSE,,,,,
11183739,FARMACIA Y CONSULTORIO MEDICO MOTA,,464111,Farmacias sin minisúper,0 a 5 personas,SEGUNDA SUR,CUARTA PONIENTE,0,30890,7,Chiapas,15,Cacahoatán,1,Cacahoatán,81,15,14.99039704,-92.16810792,2024-11,,,,FALSE,FALSE,FALSE,No GSV within radius,Oscar ,TRUE,TRUE,INDEPENDENT,,,,
11194095,FARMACIA LA SALUD,,464111,Farmacias sin minisúper,0 a 5 personas,PRIMERA ORIENTE,QUINTA NORTE,7,30890,7,Chiapas,15,Cacahoatán,1,Cacahoatán,81,34,14.99145448,-92.16518763,2024-11,,,,FALSE,FALSE,FALSE,No GSV within radius,Oscar ,FALSE,FALSE,,,,,
11353452,MINI FARMACIA FRANCISCO,,464111,Farmacias sin minisúper,0 a 5 personas,NINGUNO,NINGUNO,0,30893,7,Chiapas,15,Cacahoatán,43,Salvador Urbina,325,16,15.03461955,-92.20761531,2024-11,,,,FALSE,FALSE,FALSE,No GSV within radius,Oscar ,FALSE,FALSE,,,,,
11552458,FARMACIA MAYITA,,464111,Farmacias sin minisúper,0 a 5 personas,NINGUNO,NINGUNO,0,30893,7,Chiapas,15,Cacahoatán,52,Unión Roja,24,11,15.04645382,-92.2156656,2024-11,,,,FALSE,FALSE,FALSE,No GSV within radius,Oscar ,FALSE,FALSE,,,,,
11684743,FARMACIA TADEO,,464111,Farmacias sin minisúper,0 a 5 personas,NINGUNO,NINGUNO,0,30893,7,Chiapas,15,Cacahoatán,43,Salvador Urbina,325,10,15.03617297,-92.20644902,2024-11,9621354490,,,FALSE,FALSE,FALSE,No GSV within radius,Oscar ,TRUE,FALSE,,,,,
399716,FARMACIAS YIREH,,464111,Farmacias sin minisúper,6 a 10 personas,MORELOS,20 DE NOVIEMBRE,0,29980,7,Chiapas,16,Catazajá,1,Catazajá,89,17,17.72560114,-92.01368883,2014-12,,,WWW.FARMACIAYIREH.COM,FALSE,FALSE,FALSE,No GSV within radius,Oscar ,TRUE,TRUE,FARMACIAS YIREH,,,Farmacias Yireh - Playas de Catazajá,
488955,FARMACIA LOS ANGELES,,464111,Farmacias sin minisúper,0 a 5 personas,MORELOS,ANGEL ALBINO CORZO,0,29980,7,Chiapas,16,Catazajá,1,Catazajá,89,30,17.72639503,-92.01458598,2010-07,9163660523,,,FALSE,FALSE,FALSE,No GSV within radius,Oscar ,FALSE,FALSE,,,,,
9464872,FARMACIAS SIMILARES CATAZAJA,GENERICOS DEL TROPICO SA DE CV,464111,Farmacias sin minisúper,0 a 5 personas,MORELOS,16 de Septiembre,,29980,7,Chiapas,16,Catazajá,1,Catazajá,89,18,17.7256978,-92.01364997,2023-11,,SIMICOORDINACION2@GENER.COM.MX,,FALSE,FALSE,FALSE,No GSV within radius,Oscar ,TRUE,TRUE,FARMACIAS SIMILARES,,,Farmacia Similares,
11414852,FARMACIA SINAI,,464111,Farmacias sin minisúper,0 a 5 personas,MORELOS,LUIS ESPINOZA,0,29980,7,Chiapas,16,Catazajá,1,Catazajá,89,25,17.72609748,-92.01420108,2024-11,,,,FALSE,FALSE,FALSE,No GSV within radius,Oscar ,TRUE,FALSE,,,,,
434347,FARMACIA Y PAPELERIA ELJUVI,,464111,Farmacias sin minisúper,0 a 5 personas,CENTRAL ORIENTE,BUGAMBILIA,974,30400,7,Chiapas,17,Cintalapa,1,Cintalapa de Figueroa,508,19,16.69631467,-93.71224426,2014-12,,,,FALSE,FALSE,FALSE,No GSV within radius,Oscar ,FALSE,FALSE,,,,,
435404,FARMACIA SIN NOMBRE,,464112,Farmacias con minisúper,6 a 10 personas,MIGUEL HIDALGO Y COSTILLA,NIÑOS HEROES,0,30400,7,Chiapas,17,Cintalapa,1,Cintalapa de Figueroa,353,6,16.6819365,-93.73025628,2014-12,9681278281,,,FALSE,FALSE,FALSE,No GSV within radius,Oscar ,TRUE,FALSE,,,,,
468189,FARMACIA SANTODOMINGO,,464111,Farmacias sin minisúper,0 a 5 personas,CENTRAL PONIENTE,OCTAVA PONIENTE,0,30400,7,Chiapas,17,Cintalapa,1,Cintalapa de Figueroa,387,8,16.69879138,-93.72847778,2010-07,9681097591,,,FALSE,TRUE,FALSE,No GSV within radius,Oscar ,TRUE,FALSE,,,,,
468402,FARMACIA SAN CARALAMPIO,,464111,Farmacias sin minisúper,0 a 5 personas,CENTRAL PONIENTE,SEXTA PONIENTE,553,30400,7,Chiapas,17,Cintalapa,1,Cintalapa de Figueroa,387,16,16.69844777,-93.72620094,2010-07,,,,FALSE,FALSE,FALSE,No GSV within radius,Oscar ,TRUE,FALSE,,,,,
498365,FARMACIA LARISA,,464111,Farmacias sin minisúper,0 a 5 personas,MIGUEL HIDALGO Y COSTILLA,NIÑOS HEROES,0,30400,7,Chiapas,17,Cintalapa,1,Cintalapa de Figueroa,353,6,16.68154121,-93.72981115,2010-07,9681294285,,,FALSE,FALSE,FALSE,No GSV within radius,Oscar ,TRUE,FALSE,,,,,
498411,FARMACIA MEDICO AMIGO,,464111,Farmacias sin minisúper,0 a 5 personas,BENITO JUAREZ,FERNANDO MONTES DE OCA,0,30400,7,Chiapas,17,Cintalapa,1,Cintalapa de Figueroa,442,25,16.68164733,-93.72506047,2010-07,9681097151,,,FALSE,FALSE,FALSE,No GSV within radius,Oscar ,TRUE,FALSE,,,,\,
499126,FARMACIA YOLMAR,,464112,Farmacias con minisúper,0 a 5 personas,RODULFO FIGUEROA,PRIMERA ORIENTE,53,30400,7,Chiapas,17,Cintalapa,1,Cintalapa de Figueroa,334,15,16.68929397,-93.72183608,2010-07,,,,FALSE,FALSE,FALSE,No GSV within radius,Oscar ,TRUE,FALSE,,,,,
6197854,PRENDA MEX,,464111,Farmacias sin minisúper,0 a 5 personas,PRIMERA PONIENTE,CENTRAL PONIENTE,88,30400,7,Chiapas,17,Cintalapa,1,Cintalapa de Figueroa,391,33,16.69726767,-93.72207725,2010-07,,,,FALSE,FALSE,FALSE,No GSV within radius,Oscar ,FALSE,FALSE,,,,"CELLPHONE STORE, NOT PHARMACY",
6198135,FARMACIAS DE SIMILARES CINTALAPA 5,FARMACIAS DE SIMILARES SA DE CV,464111,Farmacias sin minisúper,6 a 10 personas,TERCERA ORIENTE,Tercera Norte,183,30400,7,Chiapas,17,Cintalapa,1,Cintalapa de Figueroa,391,5,16.69585268,-93.71930593,2010-07,,REDESL@PORUNPAISMEJOR.COM.MX,WWW.FARMACIASDESIMILARES.COM,FALSE,FALSE,FALSE,No GSV within radius,Oscar ,TRUE,TRUE,FARMACIAS SIMILARES,,,,
6296947,FARMACIAS DE SIMILARES CINTALAPA 3,FARMACIAS DE SIMILARES SA DE CV,464111,Farmacias sin minisúper,0 a 5 personas,RODULFO FIGUEROA,Primera Oriente,138,30400,7,Chiapas,17,Cintalapa,1,Cintalapa de Figueroa,334,24,16.68908137,-93.72142249,2010-07,,REDESL@PORUNPAISMEJOR.COM.MX,WWW.FARMACIASDESIMILARES.COM,FALSE,FALSE,FALSE,No GSV within radius,Oscar ,TRUE,TRUE,FARMACIAS SIMILARES,,,,
6298280,FARMACIAS DE SIMILARES CINTALAPA 2,FARMACIAS DE SIMILARES SA DE CV,464111,Farmacias sin minisúper,11 a 30 personas,CENTRAL NORTE,Primera Norte,2,30400,7,Chiapas,17,Cintalapa,1,Cintalapa de Figueroa,368,32,16.6985708,-93.7209856,2010-07,,REDESL@PORUNPAISMEJOR.COM.MX,WWW.FARMACIASDESIMILARES.COM,FALSE,FALSE,FALSE,No GSV within radius,Oscar ,TRUE,TRUE,FARMACIAS SIMILARES,,,,
6299010,FARMACIAS MEDICAS ECONOMICAS CINTALAPA 2,,464111,Farmacias sin minisúper,0 a 5 personas,CENTRAL,SÉPTIMA SUR,0,,7,Chiapas,17,Cintalapa,1,Cintalapa de Figueroa,419,5,16.69276579,-93.72178151,2014-12,,DESPACHO_FADRI@HOTMAIL.COM,,FALSE,TRUE,FALSE,No GSV within radius,Oscar ,FALSE,FALSE,,,TRUE,,
6774910,FARMACIAS DEL AHORRO CHS TPCT CATEDRAL,COMERCIALIZADORA FARMACEUTICA DE CHIAPAS SAPI DE CV,464111,Farmacias sin minisúper,11 a 30 personas,PRIMERA NORTE,Central Norte,32,30700,7,Chiapas,17,Cintalapa,1,Cintalapa de Figueroa,368,31,16.69863532,-93.72103893,2017-03,,CLIENTES@FAHORRO.COM.MX,WWW.FAHORRO.COM,FALSE,FALSE,FALSE,No GSV within radius,Oscar ,TRUE,TRUE,FARMACIAS DEL AHORRO,,,,
6775008,FARMACIAS DEL AHORRO CHS TXC2 CINTALAPA II,COMERCIALIZADORA FARMACEUTICA DE CHIAPAS SAPI DE CV,464111,Farmacias sin minisúper,11 a 30 personas,CENTRAL NORTE,Segunda Norte,,30640,7,Chiapas,17,Cintalapa,1,Cintalapa de Figueroa,368,31,16.69864993,-93.72097955,2017-03,,CLIENTES@FAHORRO.COM.MX,WWW.FAHORRO.COM,FALSE,FALSE,FALSE,No GSV within radius,Oscar ,TRUE,TRUE,FARMACIAS DEL AHORRO,,,FARMACIAS DEL AHORRO Cintalapa II,
6784035,FARMACIAS DEL AHORRO CHS TXCI CINTALAPA,COMERCIALIZADORA FARMACEUTICA DE CHIAPAS SAPI DE CV,464111,Farmacias sin minisúper,11 a 30 personas,CENTRAL PONIENTE,Segunda Poniente,113,30400,7,Chiapas,17,Cintalapa,1,Cintalapa de Figueroa,391,36,16.69786185,-93.7221315,2017-03,,CLIENTES@FAHORRO.COM.MX,WWW.FAHORRO.COM,FALSE,TRUE,FALSE,No GSV within radius,Oscar ,TRUE,TRUE,FARMACIAS DEL AHORRO,,,,
6784098,FARMACIAS DEL AHORRO CHS TXRL RAMON LARRAINZAR,COMERCIALIZADORA FARMACEUTICA DE CHIAPAS SAPI DE CV,464111,Farmacias sin minisúper,11 a 30 personas,CENTRAL NORTE,Primera Norte,,29059,7,Chiapas,17,Cintalapa,1,Cintalapa de Figueroa,368,31,16.69870154,-93.72097185,2017-03,,CLIENTES@FAHORRO.COM.MX,WWW.FAHORRO.COM,FALSE,FALSE,FALSE,No GSV within radius,Oscar ,SAME AS ONE BEFORETRUE,,,,,,
6869278,FARMACIAS DE SIMILARES CINTALAPA 4,FARMACIAS DE SIMILARES SA DE CV,464111,Farmacias sin minisúper,6 a 10 personas,PRIMERA NORTE,Primera Poniente,2,30400,7,Chiapas,17,Cintalapa,1,Cintalapa de Figueroa,368,32,16.69864655,-93.72147802,2019-04,,REDESL@PORUNPAISMEJOR.COM.MX,WWW.FARMACIASDESIMILARES.COM,FALSE,FALSE,FALSE,No GSV within radius,Oscar ,TRUE,TRUE,FARMACIAS SIMILARES,,,,
7442589,FARMACIA DE DIOS,,464111,Farmacias sin minisúper,0 a 5 personas,NOVENA SUR PONIENTE,SEPTIMA PONIENTE,658,30400,7,Chiapas,17,Cintalapa,1,Cintalapa de Figueroa,032A,9,16.69139742,-93.72845189,2019-11,,,,FALSE,FALSE,FALSE,No GSV within radius,Oscar ,TRUE,FALSE,,,,,
7443099,FARMACIA LA MERDED,,464111,Farmacias sin minisúper,0 a 5 personas,PRIMERA SUR,CENTRAL,0,30400,7,Chiapas,17,Cintalapa,1,Cintalapa de Figueroa,391,32,16.6971341,-93.72175985,2019-11,9681092512,AKCE_ORIENTE@HOTMAIL.COM,,FALSE,FALSE,FALSE,No GSV within radius,Oscar ,TRUE,FALSE,,,,,
8265061,FARMACIA ROMA,,464111,Farmacias sin minisúper,0 a 5 personas,QUINTA PONIENTE,DECIMA SUR,944,30400,7,Chiapas,17,Cintalapa,1,Cintalapa de Figueroa,032A,12,16.6898708,-93.72716497,2019-11,9681671536,,,TRUE,FALSE,FALSE,No GSV within radius,Oscar ,TRUE,FALSE,,,,PHARMACY NEXT TO A CLINIC,
8755684,FARMACIA EL MIRADOR,,464112,Farmacias con minisúper,0 a 5 personas,QUINTA PONIENTE,DECIMA CUARTA SUR,508,30400,7,Chiapas,17,Cintalapa,1,Cintalapa de Figueroa,349,40,16.68759703,-93.72755437,2019-11,,,,FALSE,TRUE,FALSE,No GSV within radius,Oscar ,TRUE,FALSE,,,,Farmacia El Mirador,
9099856,VENTA DE MEDICAMENTOS SIN NOMBRE,,464111,Farmacias sin minisúper,0 a 5 personas,PRIMERA NORTE,PRIMERA PONIENTE,0,30400,7,Chiapas,17,Cintalapa,1,Cintalapa de Figueroa,368,32,16.69860329,-93.72120289,2019-11,,,,FALSE,FALSE,FALSE,No GSV within radius,Oscar ,FALSE,FALSE,,,,,
9276800,FARMACIAS SIMILARES,FARMACIA DE SIMILARES SA DE CV,464111,Farmacias sin minisúper,6 a 10 personas,CENTRAL PONIENTE,SEGUNDA PONIENTE,,30400,7,Chiapas,17,Cintalapa,1,Cintalapa de Figueroa,387,33,16.69797415,-93.72305043,2020-11,,,,FALSE,FALSE,FALSE,No GSV within radius,Oscar ,TRUE,TRUE,FARMACIAS SIMILARES,,,,
9422256,FARMACIAS SANTA CRUZ,SUPER FARMACIAS DEL SURESTE SA DE CV,464112,Farmacias con minisúper,0 a 5 personas,PRIMERA NORTE,PRIMERA PONIENTE,78,,7,Chiapas,17,Cintalapa,1,Cintalapa de Figueroa,368,32,16.69858794,-93.72109701,2023-11,,FCIA_SANTACRUZ@YAHOO.COM,,FALSE,FALSE,FALSE,No GSV within radius,Oscar ,TRUE,TRUE,FARMACIAS SIMILARES,,,,
9438576,FARMACIA GUADALAJARA,FARMACIA GUADALAJARA SA DE CV,464112,Farmacias con minisúper,11 a 30 personas,PRIMERA SUR,Segunda Oriente,65,30400,7,Chiapas,17,Cintalapa,1,Cintalapa de Figueroa,391,26,16.69701118,-93.72029014,2023-11,9686846419,JESPINOZA@FRAGUA.COM.MX,WWW.FARMACIASGUADALAJARA.COM.MX,FALSE,FALSE,FALSE,No GSV within radius,Oscar ,TRUE,TRUE,FARMACIAS GUADALAJARA,,,FARMACIA GUADALAJARA,
9482061,FARMACIAS YZA SUC 0013 MERCADO,FARMACON SA DE CV,464111,Farmacias sin minisúper,0 a 5 personas,PRIMERA NORTE,Segunda Poniente,84,30400,7,Chiapas,17,Cintalapa,1,Cintalapa de Figueroa,368,25,16.69885983,-93.72283826,2024-05,,ATENCIONACLIENTES@YZA.MX,WWW.YZA.MX,FALSE,FALSE,FALSE,No GSV within radius,Oscar ,FALSE,FALSE,,,TRUE,YZA,
9927469,FARMACIA VIDA NUEVA,,464111,Farmacias sin minisúper,0 a 5 personas,NOVENA SUR PONIENTE,DECIMA PONIENTE,0,30400,7,Chiapas,17,Cintalapa,1,Cintalapa de Figueroa,032A,38,16.69179489,-93.73185999,2024-11,9681293295,,,FALSE,FALSE,FALSE,No GSV within radius,Oscar ,TRUE,FALSE,,,,,
10140071,FARMACIA CANDELARIA,,464111,Farmacias sin minisúper,0 a 5 personas,SAN CRISTOBAL,NINGUNO,0,30400,7,Chiapas,17,Cintalapa,1,Cintalapa de Figueroa,508,2,16.69383087,-93.70886759,2024-11,9681159353,,,FALSE,FALSE,FALSE,No GSV within radius,Oscar ,FALSE,FALSE,,,,,
10397712,FARMACIA SAN ANTONIO,,464111,Farmacias sin minisúper,0 a 5 personas,PRIMERA ORIENTE,CENTRAL ORIENTE,0,30400,7,Chiapas,17,Cintalapa,1,Cintalapa de Figueroa,372,17,16.6981646,-93.72014143,2024-11,9681279604,,,FALSE,FALSE,FALSE,No GSV within radius,Oscar ,FALSE,FALSE,,,,,
11377452,FARMACIA KAIROS,,464111,Farmacias sin minisúper,0 a 5 personas,LUIS DONALDO COLOSIO,NINGUNO,,30400,7,Chiapas,17,Cintalapa,1,Cintalapa de Figueroa,438,41,16.68851975,-93.7337439,2024-11,,,,FALSE,FALSE,FALSE,No GSV within radius,Oscar ,TRUE,FALSE,,,,,
11439568,FARMACIA SAN JUANITO,,464111,Farmacias sin minisúper,0 a 5 personas,MIGUEL HIDALGO Y COSTILLA,GEMA,,30400,7,Chiapas,17,Cintalapa,1,Cintalapa de Figueroa,300,78,16.68775464,-93.73721213,2024-11,9681524448,,,FALSE,FALSE,FALSE,No GSV within radius,Oscar ,FALSE,FALSE,,,,,
11442726,FARMACIA SANTA FE,,464111,Farmacias sin minisúper,0 a 5 personas,TERCERA ORIENTE,SEPTIMA SUR,645,30400,7,Chiapas,17,Cintalapa,1,Cintalapa de Figueroa,334,21,16.69169146,-93.72009827,2024-11,,,,FALSE,TRUE,FALSE,No GSV within radius,Oscar ,TRUE,FALSE,,,,,
11468010,MINI-FARMACIA AXEL,,464111,Farmacias sin minisúper,0 a 5 personas,DECIMA SEGUNDA PONIENTE,SEGUNDA SUR,0,30400,7,Chiapas,17,Cintalapa,1,Cintalapa de Figueroa,387,19,16.6973834,-93.73224737,2024-11,,,,FALSE,FALSE,FALSE,No GSV within radius,Oscar ,FALSE,FALSE,,,,,
11530197,MINIFARMACIA SIN NOMBRE,,464111,Farmacias sin minisúper,0 a 5 personas,AGUSTIN DE ITURBIDE,NINGUNO,,30400,7,Chiapas,17,Cintalapa,1,Cintalapa de Figueroa,438,6,16.68341785,-93.73853116,2024-11,,,,FALSE,FALSE,FALSE,No GSV within radius,Oscar ,FALSE,FALSE,,TRUE,,,
11531303,FARMACIA PLUS,,464111,Farmacias sin minisúper,0 a 5 personas,SEGUNDA SUR,PRIMERA ORIENTE,,30400,7,Chiapas,17,Cintalapa,1,Cintalapa de Figueroa,391,28,16.69618793,-93.72116018,2024-11,,,,FALSE,FALSE,FALSE,No GSV within radius,Oscar ,TRUE,FALSE,,,,,
11646079,FARMACIA SIN NOMBRE,,464111,Farmacias sin minisúper,0 a 5 personas,JOSEFA ORTIZ DE DOMINGUEZ,PRIMERO DE MAYO,,30400,7,Chiapas,17,Cintalapa,1,Cintalapa de Figueroa,349,15,16.68249086,-93.73453612,2024-11,,,,FALSE,FALSE,FALSE,No GSV within radius,Oscar ,FALSE,FALSE,,,,,
469265,FARMACIA MARIA AUXILIADORA,,464111,Farmacias sin minisúper,0 a 5 personas,CENTRAL ORIENTE,SEGUNDA ORIENTE NORTE,0,29650,7,Chiapas,18,Coapilla,1,Coapilla,30,14,17.13116456,-93.15851294,2010-07,9682893089,,,FALSE,FALSE,FALSE,No GSV within radius,Oscar ,TRUE,FALSE,,,,,
469271,FARMACIA MARISOL,,464111,Farmacias sin minisúper,0 a 5 personas,CENTRAL ORIENTE,QUINTA ORIENTE NORTE,0,29650,7,Chiapas,18,Coapilla,1,Coapilla,30,24,17.13153939,-93.15583555,2010-07,,,,FALSE,FALSE,FALSE,No GSV within radius,Oscar ,TRUE,FALSE,,,,,
469614,FARMACIA BETEZDA,,464111,Farmacias sin minisúper,0 a 5 personas,TERCERA ORIENTE SUR,REAL DE GUADALUPE,0,29650,7,Chiapas,18,Coapilla,1,Coapilla,45,10,17.13106631,-93.15807703,2010-07,9613170773,,,FALSE,TRUE,FALSE,No GSV within radius,Oscar ,TRUE,FALSE,,,,FARMACIA BETESDA,
469666,FARMACIA JAMILET,,464111,Farmacias sin minisúper,0 a 5 personas,TERCERA ORIENTE SUR,NINGUNO,0,29650,7,Chiapas,18,Coapilla,1,Coapilla,45,35,17.12667424,-93.15861303,2010-07,,,,FALSE,FALSE,FALSE,No GSV within radius,Oscar ,TRUE,FALSE,,,,FARMACIA YAMILETH,
6977417,FARMACIA ABISAI,,464111,Farmacias sin minisúper,0 a 5 personas,TERCERA NORTE ORIENTE,CUARTA ORIENTE NORTE,0,29650,7,Chiapas,18,Coapilla,1,Coapilla,30,22,17.13269423,-93.1563918,2019-11,9191263188,,,FALSE,FALSE,FALSE,No GSV within radius,Oscar ,TRUE,TRUE,INDEPENDENT,,,,
10491689,SUPER FARMACIA BABYLANDIA,,464111,Farmacias sin minisúper,0 a 5 personas,CENTRAL SUR,CENTRAL NORTE,0,29650,7,Chiapas,18,Coapilla,1,Coapilla,45,7,17.13019208,-93.16041951,2024-11,9612782620,,,FALSE,FALSE,FALSE,No GSV within radius,Oscar ,TRUE,FALSE,,,,,
11224309,FARMACIA ALBOZAM,,464111,Farmacias sin minisúper,0 a 5 personas,QUINTA ORIENTE NORTE,NINGUNO,0,29650,7,Chiapas,18,Coapilla,1,Coapilla,30,42,17.13299107,-93.15560119,2024-11,9672298196,,,TRUE,FALSE,FALSE,No GSV within radius,Oscar ,TRUE,TRUE,INDEPENDENT,,,,
351657,FARMACIA MARIA AUXILIADORA,,464111,Farmacias sin minisúper,0 a 5 personas,CENTRAL ORIENTE,SEGUNDA ORIENTE SUR,9,30018,7,Chiapas,19,Comitán de Domínguez,1,Comitán de Domínguez,42,20,16.25368632,-92.13384519,2010-07,,,,FALSE,FALSE,FALSE,No GSV within radius,Oscar ,FALSE,FALSE,,,,,
351899,FARMACIA LUZ,,464111,Farmacias sin minisúper,0 a 5 personas,SEGUNDA ORIENTE SUR,CUARTA SUR ORIENTE,50,30023,7,Chiapas,19,Comitán de Domínguez,1,Comitán de Domínguez,42,37,16.25056988,-92.13236512,2010-07,,,,FALSE,TRUE,TRUE,No GSV within radius,Oscar ,TRUE,FALSE,,,,,
351902,FARMACIA SIMILARES,GERGUS SA DE CV,464111,Farmacias sin minisúper,6 a 10 personas,SEGUNDA ORIENTE SUR,CUARTA SUR ORIENTE ( PROF FERNANDO UTRILLA),52,30029,7,Chiapas,19,Comitán de Domínguez,1,Comitán de Domínguez,42,37,16.25035617,-92.13220939,2010-07,,,,FALSE,FALSE,FALSE,No GSV within radius,Oscar ,FALSE,FALSE,,TRUE,,FARMACIAS SIMILARES COMINTAN 8,
356392,FARMACIA SAN SEBASTIAN,,464111,Farmacias sin minisúper,0 a 5 personas,PRIMERA ORIENTE SUR,SEXTA SUR ORIENTE,56,30029,7,Chiapas,19,Comitán de Domínguez,1,Comitán de Domínguez,288,7,16.24824755,-92.13236243,2010-07,,,,FALSE,FALSE,FALSE,No GSV within radius,Oscar ,TRUE,FALSE,,,,,
356395,FARMACIA SAN SEBASTIAN,,464111,Farmacias sin minisúper,0 a 5 personas,SEPTIMA SUR ORIENTE,SEGUNDA ORIENTE SUR,4,30029,7,Chiapas,19,Comitán de Domínguez,1,Comitán de Domínguez,288,7,16.2479868,-92.13156728,2010-07,,,,FALSE,FALSE,FALSE,No GSV within radius,Oscar ,TRUE,FALSE,,,,,
356655,FARMACIA AURORA,,464112,Farmacias con minisúper,6 a 10 personas,HOSPITAL,DECIMA SUR ORIENTE,4,30029,7,Chiapas,19,Comitán de Domínguez,1,Comitán de Domínguez,288,17,16.24585835,-92.12999813,2010-07,,BELLAAURORA53@HOTMAIL.COM,,FALSE,FALSE,FALSE,No GSV within radius,Oscar ,TRUE,FALSE,,,,Farmacia Aurora,
358864,FARMACIA SAN RAFAEL,,464111,Farmacias sin minisúper,0 a 5 personas,DECIMA SUR PONIENTE,QUINTA PONIENTE SUR,0,30029,7,Chiapas,19,Comitán de Domínguez,1,Comitán de Domínguez,502,16,16.24030853,-92.13621158,2010-07,,,,FALSE,FALSE,FALSE,No GSV within radius,Oscar ,FALSE,FALSE,,,,,
358935,FARMACIAS MEDICO AMIGO,,464111,Farmacias sin minisúper,6 a 10 personas,QUINTA PONIENTE SUR,DECIMA PRIMERA SUR PONIENTE,0,30029,7,Chiapas,19,Comitán de Domínguez,1,Comitán de Domínguez,502,17,16.24025803,-92.13558854,2010-07,9631125698,,,FALSE,FALSE,FALSE,No GSV within radius,Oscar ,FALSE,FALSE,,,,,
358939,FARMACIA EVELYN,,464111,Farmacias sin minisúper,0 a 5 personas,QUINTA PONIENTE SUR,DECIMA PRIMERA SUR PONIENTE,0,30029,7,Chiapas,19,Comitán de Domínguez,1,Comitán de Domínguez,502,17,16.2403247,-92.13563991,2010-07,,,,FALSE,FALSE,FALSE,No GSV within radius,Oscar ,TRUE,FALSE,,,,,
358953,LA FARMACIA DEL MEDICO,LA FARMACIA DEL MEDICO EN COMITAN SA DE CV,464111,Farmacias sin minisúper,0 a 5 personas,DECIMA PRIMERA SUR PONIENTE,NINGUNO,8,30029,7,Chiapas,19,Comitán de Domínguez,1,Comitán de Domínguez,502,6,16.23906262,-92.13568314,2010-07,,MEDICOADMST@GMAIL.COM,,FALSE,FALSE,FALSE,No GSV within radius,Oscar ,TRUE,FALSE,,,,,
365324,FARMACIA MEDICO DEL CEDRO,,464111,Farmacias sin minisúper,0 a 5 personas,NINGUNO,QUINTA NORTE ORIENTE,109,30015,7,Chiapas,19,Comitán de Domínguez,1,Comitán de Domínguez,451,15,16.26032698,-92.13207128,2010-07,,,,FALSE,FALSE,FALSE,No GSV within radius,Oscar ,TRUE,FALSE,,,,,
365589,FARMACIAS SIMILARES COMITAN 09,FARRAM SA DE CV,464111,Farmacias sin minisúper,6 a 10 personas,QUINTA NORTE ORIENTE,Fresnos,,30010,7,Chiapas,19,Comitán de Domínguez,1,Comitán de Domínguez,451,4,16.26082335,-92.13196994,2010-07,,CONTABILIDAD2@FARRAM.COM.MX,,FALSE,FALSE,FALSE,No GSV within radius,Oscar ,TRUE,FALSE,,,,,
411135,CORPORATIVO INTEGRAL Y FARMACEUTICO LA PIEDAD,CORPORATIVO INTEGRAL Y FARMACEUTICO LA PIEDAD SA DE CV,464112,Farmacias con minisúper,0 a 5 personas,CUARTA NORTE PONIENTE,SEPTIMA PONIENTE NORTE,100,30069,7,Chiapas,19,Comitán de Domínguez,1,Comitán de Domínguez,220,14,16.2509944,-92.14540176,2014-12,,FARLAPIEDAD82@HOTMAIL.COM,,FALSE,FALSE,FALSE,No GSV within radius,Oscar ,TRUE,FALSE,,,,,
411390,FARMACIA DEL MEDICO,LA FARMACIA DEL MEDICO SA DE CV,464111,Farmacias sin minisúper,0 a 5 personas,NINGUNO,NINGUNO,0,30093,7,Chiapas,19,Comitán de Domínguez,1,Comitán de Domínguez,095A,5,16.20842362,-92.1069352,2014-12,9636359959,FARMED@LIVE.COM.MX,,FALSE,FALSE,FALSE,No GSV within radius,Oscar ,TRUE,FALSE,,,,,
412062,FARMACIA SIMILARES,FARRAM SA DE CV,464111,Farmacias sin minisúper,0 a 5 personas,CUARTA PONIENTE SUR,LOS OLIVOS,28,30029,7,Chiapas,19,Comitán de Domínguez,1,Comitán de Domínguez,273,8,16.24157631,-92.13462471,2014-12,,,WWW.FARMACIASDESIMILAREE.COM,FALSE,FALSE,FALSE,No GSV within radius,Oscar ,TRUE,FALSE,FARMACIAS GI,,,,
412707,FARMACIA DE PATENTE Y GENERICO,,464111,Farmacias sin minisúper,0 a 5 personas,DECIMA SUR PONIENTE,QUINTA PONIENTE SUR,46,30029,7,Chiapas,19,Comitán de Domínguez,1,Comitán de Domínguez,502,17,16.24073341,-92.13553594,2014-12,,,,FALSE,FALSE,FALSE,No GSV within radius,Oscar ,TRUE,FALSE,,,,,
412738,FARMACIAS MEDISUR GENERICOS Y NATURISTAS,,464111,Farmacias sin minisúper,0 a 5 personas,QUINTA PONIENTE SUR,DECIMA PRIMERA SUR PONIENTE,0,30029,7,Chiapas,19,Comitán de Domínguez,1,Comitán de Domínguez,502,17,16.23970858,-92.13520685,2010-07,,,,FALSE,FALSE,FALSE,No GSV within radius,Oscar ,TRUE,TRUE,INDEPENDENT,,,,
472177,FARMACIA SAN SEBASTIAN,,464111,Farmacias sin minisúper,0 a 5 personas,BELISARIO DOMINGUEZ,DECIMA TERCERA SUR PONIENTE,159,30043,7,Chiapas,19,Comitán de Domínguez,1,Comitán de Domínguez,502,14,16.23699869,-92.1350821,2010-07,,,,FALSE,FALSE,FALSE,No GSV within radius,Oscar ,TRUE,FALSE,,,,,
6194990,FARMACIA EXFARMA,EXFARMA SA DE CV,464111,Farmacias sin minisúper,0 a 5 personas,NOVENA SUR ORIENTE,TERCERA ORIENTE SUR,,30029,7,Chiapas,19,Comitán de Domínguez,1,Comitán de Domínguez,288,16,16.24617096,-92.12961968,2010-07,,,,FALSE,FALSE,FALSE,No GSV within radius,Oscar ,FALSE,FALSE,,,,,
6298486,FARMACIAS DEL AHORRO CHS TXMZ MARIANO RUIZ,COMERCIALIZADORA FARMACEUTICA DE CHIAPAS SAPI DE CV,464111,Farmacias sin minisúper,11 a 30 personas,BELISARIO DOMÍNGUEZ,Primera Sur Poniente,,30077,7,Chiapas,19,Comitán de Domínguez,1,Comitán de Domínguez,269,22,16.24836596,-92.14100846,2010-07,,CLIENTES@FAHORRO.COM.MX,WWW.FAHORRO.COM,FALSE,FALSE,FALSE,No GSV within radius,Oscar ,TRUE,TRUE,FARMACIAS DEL AHORRO,,,,
6299027,FARMACIAS MEDICAS ECONOMICAS COMITAN,,464111,Farmacias sin minisúper,0 a 5 personas,SEGUNDA SUR ORIENTE,PRIMERA ORIENTE SUR,12,30000,7,Chiapas,19,Comitán de Domínguez,1,Comitán de Domínguez,42,41,16.25169235,-92.13402483,2010-07,9631185965,,,FALSE,FALSE,FALSE,No GSV within radius,Oscar ,FALSE,FALSE,,,TEMPORARILY,,
6509016,FARMACIAS SIMILARES COMTAN01 CHS,FARRAM SA DE CV,464111,Farmacias sin minisúper,6 a 10 personas,SEGUNDA SUR PONIENTE,Central Sur,7,30000,7,Chiapas,19,Comitán de Domínguez,1,Comitán de Domínguez,269,10,16.25072224,-92.1355986,2016-01,,CONTABILIDAD2@FARRAM.COM.MX,,FALSE,FALSE,FALSE,No GSV within radius,Oscar ,TRUE,TRUE,FARMACIAS SIMILARES,,,,
6509017,FARMACIAS SIMILARES COMITAN 02,FARRAM SA DE CV,464111,Farmacias sin minisúper,6 a 10 personas,QUINTA PONIENTE SUR,Décima Primera Sur Poniente,1009,30068,7,Chiapas,19,Comitán de Domínguez,1,Comitán de Domínguez,502,17,16.2401584,-92.13551662,2016-01,,CONTABILIDAD2@FARRAM.COM.MX,,FALSE,FALSE,FALSE,No GSV within radius,Oscar ,TRUE,TRUE,FARMACIAS SIMILARES,,,,
6509018,FARMACIAS SIMILARES COMITAN 07,FARRAM SA DE CV,464111,Farmacias sin minisúper,6 a 10 personas,QUINTA NORTE ORIENTE,Fresnos,134,30010,7,Chiapas,19,Comitán de Domínguez,1,Comitán de Domínguez,451,4,16.26082558,-92.13196922,2016-01,,CONTABILIDAD2@FARRAM.COM.MX,,FALSE,FALSE,FALSE,No GSV within radius,Oscar ,TRUE,FALSE,,,,,
6509020,FARMACIAS SIMILARES COMITAN 04,FARRAM SA DE CV,464111,Farmacias sin minisúper,6 a 10 personas,BELISARIO DOMÍNGUEZ,Décima Primera Sur Poniente,152,30030,7,Chiapas,19,Comitán de Domínguez,1,Comitán de Domínguez,049A,18,16.23818006,-92.13583538,2016-01,,CONTABILIDAD2@FARRAM.COM.MX,,FALSE,FALSE,FALSE,No GSV within radius,Oscar ,TRUE,TRUE,FARMACIAS SIMILARES,,,,
6509021,FARMACIAS SIMILARES,FARRAM SA DE CV,464111,Farmacias sin minisúper,6 a 10 personas,BELISARIO DOMÍNGUEZ,Central Poniente,59,30060,7,Chiapas,19,Comitán de Domínguez,1,Comitán de Domínguez,024A,11,16.24900469,-92.14133102,2016-01,,CONTABILIDAD2@FARRAM.COM.MX,,FALSE,FALSE,FALSE,No GSV within radius,Oscar ,TRUE,TRUE,FARMACIAS SIMILARES,,,,
6509022,FARMACIAS SIMILARES COMITAN 08,FARRAM SA DE CV,464111,Farmacias sin minisúper,6 a 10 personas,DÉCIMA PRIMERA SUR PONIENTE,Séptima Poniente Sur,28,30029,7,Chiapas,19,Comitán de Domínguez,1,Comitán de Domínguez,748,12,16.23749378,-92.13923597,2016-01,,CONTABILIDAD2@FARRAM.COM.MX,,FALSE,FALSE,FALSE,No GSV within radius,Oscar ,TRUE,TRUE,FARMACIAS SIMILARES,,,,
6724645,FARMACIAS DEL AHORRO CHS TX3N SUCURSAL 3A. NORTE,COMERCIALIZADORA FARMACEUTICA DE CHIAPAS SAPI DE CV,464111,Farmacias sin minisúper,11 a 30 personas,TERCERA NORTE PONIENTE,Quinta Poniente Norte,,30019,7,Chiapas,19,Comitán de Domínguez,1,Comitán de Domínguez,220,24,16.25191582,-92.14254046,2016-01,,CLIENTES@FAHORRO.COM.MX,WWW.FAHORRO.COM,FALSE,FALSE,FALSE,No GSV within radius,Oscar ,TRUE,TRUE,FARMACIAS DEL AHORRO,,,Farmacias Del Ahorro,
6725510,H-U DE LA CRUZ FARMACIAS DEL SUR,H-U DE LA CRUZ FARMACIAS DEL SUR SA DE CV,464111,Farmacias sin minisúper,0 a 5 personas,DECIMA PRIMERA SUR PONIENTE,QUINTA PONIENTE SUR,20,30029,7,Chiapas,19,Comitán de Domínguez,1,Comitán de Domínguez,502,17,16.23962768,-92.13467015,2016-01,9636327562,HUFARMACIASDELSUR7@HOTMAIL.COM,,FALSE,FALSE,FALSE,No GSV within radius,Oscar ,TRUE,FALSE,,,,,
6775012,FARMACIAS DEL AHORRO CHS TXLP LA PILETA SUC 1955,COMERCIALIZADORA FARMACEUTICA DE CHIAPAS SAPI DE CV,464111,Farmacias sin minisúper,11 a 30 personas,BELISARIO DOMÍNGUEZ,Novena Sur Poniente,83,30029,7,Chiapas,19,Comitán de Domínguez,1,Comitán de Domínguez,273,5,16.24272437,-92.13795827,2017-03,,CLIENTES@FAHORRO.COM.MX,WWW.FAHORRO.COM,FALSE,FALSE,FALSE,No GSV within radius,Oscar ,TRUE,TRUE,FARMACIAS DEL AHORRO,,,Framacias Del Ahorro,
6865716,FARMACIAS SANTA CRUZ,SUPER FARMACIAS DEL SURESTE SA DE CV,464112,Farmacias con minisúper,0 a 5 personas,QUINTA NORTE ORIENTE,SÉPTIMA ORIENTE NORTE,117,,7,Chiapas,19,Comitán de Domínguez,1,Comitán de Domínguez,451,15,16.25981542,-92.13228726,2019-04,,FCIA_SANTACUZ@YAHOO.COM,WWW.FARMACIASANTACRUZ.COM.MX,FALSE,TRUE,FALSE,No GSV within radius,Oscar ,TRUE,FALSE,,,,,
6880104,EF EQUILIBRIO FARMACEUTICO,EQUILIBRIO FARMACEUTICO SA DE CV,464111,Farmacias sin minisúper,0 a 5 personas,QUINTA NORTE PONIENTE,TERCERA PONIENTE NORTE,38,,7,Chiapas,19,Comitán de Domínguez,1,Comitán de Domínguez,235,4,16.25497712,-92.14065572,2019-04,,EQFCOMITAN@EQUILIBRIOFARMACEUTICO.COM.MX,,FALSE,FALSE,FALSE,No GSV within radius,Oscar ,FALSE,FALSE,,,,SELLS MEDICINE TO PHARMACIES,
8468085,FARMACIAS GUADALAJARA,FARMACIA GUADALAJARA SA DE CV,464112,Farmacias con minisúper,11 a 30 personas,BELISARIO DOMÍNGUEZ NORTE,Quinta Norte Poniente,504,30019,7,Chiapas,19,Comitán de Domínguez,1,Comitán de Domínguez,220,22,16.25380184,-92.14357154,2019-11,3318400745,JESPINOZA@FRAGUA.COM.MX,WWW.FARMACIASGUADALAJARA.COM.MX,FALSE,FALSE,FALSE,No GSV within radius,Oscar ,TRUE,TRUE,FARMACIAS GUADALAJARA,,,,
8577356,FARMACIA SAN ROMAN,,464112,Farmacias con minisúper,0 a 5 personas,NOVENA SUR ORIENTE,TERCERA ORIENTE SUR,0,30029,7,Chiapas,19,Comitán de Domínguez,1,Comitán de Domínguez,288,4,16.24625405,-92.12969865,2019-11,,,,FALSE,FALSE,TRUE,No GSV within radius,Oscar ,TRUE,FALSE,,,,,
8577400,FARMACIA LA PIEDAD,,464111,Farmacias sin minisúper,0 a 5 personas,SEGUNDA ORIENTE SUR,OCTAVA SUR ORIENTE,92,30029,7,Chiapas,19,Comitán de Domínguez,1,Comitán de Domínguez,288,4,16.2466869,-92.13077145,2019-11,,FARLAPIEDAD82@HOTMAIL.COM,,TRUE,FALSE,FALSE,No GSV within radius,Oscar ,TRUE,FALSE,,,,PHARMACY NEXT TO CLINIC,
8577739,FARMACIA SAN MARTIN,,464111,Farmacias sin minisúper,0 a 5 personas,QUINTA PONIENTE SUR,DECIMA SUR PONIENTE,0,30029,7,Chiapas,19,Comitán de Domínguez,1,Comitán de Domínguez,502,16,16.23949803,-92.13516574,2019-11,9631531976,,,FALSE,FALSE,FALSE,No GSV within radius,Oscar ,TRUE,FALSE,,,,,
8577897,FARMACIA DERMATOLOGICA Y BARIATRICA,,464111,Farmacias sin minisúper,0 a 5 personas,NINGUNO,NINGUNO,0,30077,7,Chiapas,19,Comitán de Domínguez,1,Comitán de Domínguez,729,15,16.21559646,-92.11585774,2019-11,,,,FALSE,FALSE,FALSE,No GSV within radius,Oscar ,FALSE,FALSE,,,,,
8707474,H-U DE LA CRUZ FARMACIAS DEL SUR,H-U DE LA CRUZ FARMACIAS DEL SUR SA DE CV,464111,Farmacias sin minisúper,0 a 5 personas,QUINTA SUR ORIENTE,CUARTA ORIENTE SUR,53,30030,7,Chiapas,19,Comitán de Domínguez,1,Comitán de Domínguez,288,24,16.25080597,-92.13007536,2019-11,9671160229,FARMACIASDELSUR4@HOTMAIL.COM,,FALSE,TRUE,FALSE,No GSV within radius,Oscar ,TRUE,FALSE,,,,,
8765051,FARMACIAS  SIMILARES COMITAN 10,FARRAM SA DE CV,464111,Farmacias sin minisúper,6 a 10 personas,BELISARIO DOMÍNGUEZ,Décima Primera Sur Poniente,1012,30068,7,Chiapas,19,Comitán de Domínguez,1,Comitán de Domínguez,049A,18,16.23818264,-92.13583666,2019-11,,CONTABILIDAD2@FARRAM.COM.MX,,FALSE,FALSE,FALSE,No GSV within radius,Oscar ,TRUE,TRUE,FARMACIAS SIMILARES,,,,
8967398,FARMACIAS GUADALAJARA,FARMACIA GUADALAJARA SA DE CV,464112,Farmacias con minisúper,11 a 30 personas,SEGUNDA SUR PONIENTE,NINGUNO,919,30068,7,Chiapas,19,Comitán de Domínguez,1,Comitán de Domínguez,536,24,16.24420256,-92.14475009,2019-11,3318400745,JESPINOZA@FRAGUA.COM.MX,WWW.FARMACIASGUADALAJARA.COM.MX,FALSE,FALSE,FALSE,No GSV within radius,Oscar ,TRUE,TRUE,FARMACIAS GUADALAJARA,,,Farmacia Guadalajara,
9275028,FARMACIA GUADALAJARA,FARMACIA GUADALAJARA SA DE CV,464112,Farmacias con minisúper,11 a 30 personas,BELISARIO DOMINGUEZ NORTE,SEXTA NORTE PONIENTE,,30019,7,Chiapas,19,Comitán de Domínguez,1,Comitán de Domínguez,220,22,16.25358534,-92.14346101,2020-11,,,,FALSE,FALSE,FALSE,No GSV within radius,Oscar ,TRUE,TRUE,FARMACIAS GUADALAJARA,,,Farmacia Guadalajara,
9276801,FARMACIA GUADALAJARA,FARMACIA GUADALAJARA SA DE CV,464112,Farmacias con minisúper,11 a 30 personas,SEGUNDA SUR PONIENTE,NINGUNO,,30065,7,Chiapas,19,Comitán de Domínguez,1,Comitán de Domínguez,536,24,16.24420822,-92.14472293,2020-11,,,,FALSE,FALSE,FALSE,No GSV within radius,Oscar ,SAME AS ONE BEFORE TRUE,,,,,,
9302751,FARMACIAS ESQUIVAR,FARMACIAS ESQUIVAR SA DE CV,464112,Farmacias con minisúper,0 a 5 personas,CENTRAL NORTE,PRIMERA NORTE PONIENTE,1,30000,7,Chiapas,19,Comitán de Domínguez,1,Comitán de Domínguez,254,12,16.25248978,-92.13623154,2020-11,,,,FALSE,FALSE,FALSE,No GSV within radius,Oscar ,TRUE,FALSE,,,,,
9323429,FARMACIAS GUADALAJARA,FARMACIA GUADALAJARA SA DE CV,464112,Farmacias con minisúper,11 a 30 personas,BELISARIO DOMÍNGUEZ,Octava Sur Poniente,822,30068,7,Chiapas,19,Comitán de Domínguez,1,Comitán de Domínguez,273,14,16.24236124,-92.13795652,2020-11,3318400745,JESPINOZA@FRAGUA.COM.MX,WWW.FARMACIASGUADALAJARA.COM.MX,FALSE,FALSE,FALSE,No GSV within radius,Oscar ,TRUE,TRUE,FARMACIAS GUADALAJARA,,,Farmacia Guadalajara,
9392715,FARMACIAS SIMILARES COMITAN 12,FARRAM SA DE CV,464111,Farmacias sin minisúper,0 a 5 personas,TERCERA NORTE PONIENTE,Cuarta Poniente Norte,52,30020,7,Chiapas,19,Comitán de Domínguez,1,Comitán de Domínguez,254,7,16.25297746,-92.1403939,2024-05,,CONTABILIDAD2@FARRAM.COM.MX,,FALSE,FALSE,FALSE,No GSV within radius,Oscar ,TRUE,TRUE,FARMACIAS SIMILARES,,,FARMACIAS SIMILARES,
9394261,FARMACIAS DEL AHORRO CHS CMPA TUXTLA ALTOS PARQUE,COMERCIALIZADORA FARMACEUTICA DE CHIAPAS SAPI DE CV,464111,Farmacias sin minisúper,6 a 10 personas,PRIMERA SUR ORIENTE,Sexta Oriente Sur,1,30000,7,Chiapas,19,Comitán de Domínguez,1,Comitán de Domínguez,42,9,16.2549506,-92.13049833,2024-05,,CLIENTES@FAHORRO.COM.MX,WWW.FAHORRO.COM,FALSE,FALSE,FALSE,No GSV within radius,Oscar ,FALSE,FALSE,,,,,
9396959,FARMACIAS SIMILARES COMITAN 13,FARRAM SA DE CV,464111,Farmacias sin minisúper,0 a 5 personas,SEXTA SUR ORIENTE,Octava Oriente Sur,26,30030,7,Chiapas,19,Comitán de Domínguez,1,Comitán de Domínguez,292,19,16.25207651,-92.1253886,2024-05,,CONTABILIDAD2@FARRAM.COM.MX,,FALSE,FALSE,FALSE,No GSV within radius,Oscar ,TRUE,TRUE,FARMACIAS SIMILARES,,,Farmacia similares,
9398324,FARMACIAS SIMILARES COMITAN 6,FARRAM SA DE CV,464111,Farmacias sin minisúper,0 a 5 personas,SEGUNDA ORIENTE SUR,Quinta Sur Oriente,52,30023,7,Chiapas,19,Comitán de Domínguez,1,Comitán de Domínguez,42,37,16.25039791,-92.13223782,2024-05,,CONTABILIDAD2@FARRAM.COM.MX,,FALSE,FALSE,FALSE,No GSV within radius,Oscar ,TRUE,FALSE,,,TRUE,FARMACIAS SIMILARES COMINTAN 8,
9403309,FARMACIAS DEL AHORRO CHS TXCM TUXTLA ALTOS COMITAN,COMERCIALIZADORA FARMACEUTICA DE CHIAPAS SAPI DE CV,464111,Farmacias sin minisúper,11 a 30 personas,SEGUNDA ORIENTE SUR,Tercera Sur Oriente,41,30000,7,Chiapas,19,Comitán de Domínguez,1,Comitán de Domínguez,42,39,16.25063684,-92.13248142,2024-05,,CLIENTES@FAHORRO.COM.MX,WWW.FAHORRO.COM,FALSE,FALSE,FALSE,No GSV within radius,Oscar ,TRUE,TRUE,FARMACIAS DEL AHORRO,,,,
9410899,FARMACIAS DEL AHORRO CHS TXLV TUXTLA ALTOS LINDA VISTA,COMERCIALIZADORA FARMACEUTICA DE CHIAPAS SAPI DE CV,464111,Farmacias sin minisúper,11 a 30 personas,NINGUNO,Sauce,,30034,7,Chiapas,19,Comitán de Domínguez,1,Comitán de Domínguez,521,30,16.25479594,-92.1184271,2024-05,,CLIENTES@FAHORRO.COM.MX,WWW.FAHORRO.COM,FALSE,FALSE,FALSE,No GSV within radius,Oscar ,TRUE,TRUE,FARMACIAS DEL AHORRO,,,FARMACIAS DEL AHORRO Linda Vista,
9438168,FRAMACIAS SIMILARES COMITAN 14,FARRAM SA DE CV,464111,Farmacias sin minisúper,0 a 5 personas,DE LAS FEDERACIONES,20 de Noviembre,,30040,7,Chiapas,19,Comitán de Domínguez,1,Comitán de Domínguez,031A,20,16.23129421,-92.13212896,2024-05,,CONTABILIDAD2@FARRAM.COM.MX,,FALSE,FALSE,FALSE,No GSV within radius,Oscar ,TRUE,TRUE,FARMACIAS SIMILARES,,,Cemex,
9447874,FARMACIAS DEL AHORRO CHS CMTI TUXTLA ALTOS TIANGUIS,COMERCIALIZADORA FARMACEUTICA DE CHIAPAS SAPI DE CV,464111,Farmacias sin minisúper,11 a 30 personas,PRIMERA SUR PONIENTE,Sexta Poniente Sur,,30000,7,Chiapas,19,Comitán de Domínguez,1,Comitán de Domínguez,269,22,16.24831439,-92.14109953,2024-05,,CLIENTES@FAHORRO.COM.MX,WWW.FAHORRO.COM,FALSE,FALSE,FALSE,No GSV within radius,Oscar ,TRUE,TRUE,FARMACIAS DEL AHORRO,,,,
9448919,FARMACIAS SIMILARES COMITAN 11,FARRAM SA DE CV,464111,Farmacias sin minisúper,0 a 5 personas,BELISARIO DOMÍNGUEZ,Central Poniente,21,30020,7,Chiapas,19,Comitán de Domínguez,1,Comitán de Domínguez,024A,11,16.24904498,-92.14135138,2024-05,,CONTABILIDAD2@FARRAM.COM.MX,,FALSE,FALSE,FALSE,No GSV within radius,Oscar ,TRUE,TRUE,FARMACIAS SIMILARES,,,,
9452830,FARMACIAS SIMILARES COMITAN 05,FARRAM SA DE CV,464111,Farmacias sin minisúper,0 a 5 personas,DÉCIMA PRIMERA SUR PONIENTE,Séptima Poniente Sur,,30068,7,Chiapas,19,Comitán de Domínguez,1,Comitán de Domínguez,748,12,16.23748545,-92.13925306,2024-05,,CONTABILIDAD2@FARRAM.COM.MX,,FALSE,FALSE,FALSE,No GSV within radius,Oscar ,TRUE,TRUE,FARMACIAS SIMILARES,,,,
9456137,FARMACIA GUADALAJARA,FARMACIA GUADALAJARA SA DE CV,464112,Farmacias con minisúper,11 a 30 personas,SEGUNDA SUR PONIENTE,Décima Poniente Sur,919,30000,7,Chiapas,19,Comitán de Domínguez,1,Comitán de Domínguez,536,24,16.24419501,-92.14478631,2023-11,9636885423,JESPINOZA@FRAGUA.COM.MX,WWW.FARMACIASGUADALAJARA.COM.MX,FALSE,FALSE,FALSE,No GSV within radius,Oscar ,SAME AS ONE BEFORE TRUE,,,,,,
9462888,FARMACIAS DEL AHORRO CHS TXFE TUXTLA ALTOS FEDERACIONES,COMERCIALIZADORA FARMACEUTICA DE CHIAPAS SAPI DE CV,464111,Farmacias sin minisúper,6 a 10 personas,NINGUNO,Ninguno,,30093,7,Chiapas,19,Comitán de Domínguez,1,Comitán de Domínguez,729,2,16.21562435,-92.116077,2024-05,,CLIENTES@FAHORRO.COM.MX,WWW.FAHORRO.COM,FALSE,FALSE,FALSE,No GSV within radius,Oscar ,TRUE,TRUE,FARMACIAS DEL AHORRO,,,Farmacias del Ahorro,
9477551,FARMACIAS YZA SUC 0198 ABASTOS,FARMACON SA DE CV,464111,Farmacias sin minisúper,0 a 5 personas,BELISARIO DOMÍNGUEZ,Décima Sur Poniente,,30043,7,Chiapas,19,Comitán de Domínguez,1,Comitán de Domínguez,502,16,16.23933291,-92.13621956,2024-05,,ATENCIONACLIENTES@YZA.MX,WWW.YZA.MX,FALSE,FALSE,FALSE,No GSV within radius,Oscar ,FALSE,FALSE,,,,,
9486443,FARMACIAS YZA SUC 0196 EL CEDRO,FARMACON SA DE CV,464111,Farmacias sin minisúper,0 a 5 personas,CALLE 5A CALLE NORTE ORIENTE ENTRE EL CEDRO Y FRESNOS,,132,30010,7,Chiapas,19,Comitán de Domínguez,1,Comitán de Domínguez,466,8,16.258654,-92.135216,2024-05,,ATENCIONACLIENTES@YZA.MX,WWW.YZA.MX,FALSE,FALSE,FALSE,No GSV within radius,Oscar ,FALSE,FALSE,,,,,
9507582,VITALGEL SUPLEMENTOS NUTRICIONALES,,464111,Farmacias sin minisúper,0 a 5 personas,NINGUNO,16 DE SEPTIEMBRE,15,30040,7,Chiapas,19,Comitán de Domínguez,1,Comitán de Domínguez,031A,26,16.23337799,-92.13131876,2024-11,9631298773,,,FALSE,FALSE,FALSE,No GSV within radius,Oscar ,FALSE,FALSE,,TRUE,,,
9514151,FARMACIA SAN BENITO,,464111,Farmacias sin minisúper,0 a 5 personas,SEXTA SUR ORIENTE,QUINTA ORIENTE SUR,73,30030,7,Chiapas,19,Comitán de Domínguez,1,Comitán de Domínguez,292,15,16.25095768,-92.12760454,2024-11,,,,FALSE,FALSE,FALSE,No GSV within radius,Oscar ,TRUE,FALSE,,,,,
9584598,FARMACIA COLIBRI,,464111,Farmacias sin minisúper,0 a 5 personas,TERCERA ORIENTE SUR,OCTAVA SUR ORIENTE,0,30030,7,Chiapas,19,Comitán de Domínguez,1,Comitán de Domínguez,288,3,16.24741104,-92.12902683,2024-11,,,,FALSE,FALSE,FALSE,No GSV within radius,Oscar ,TRUE,FALSE,,,,,
9608414,FARMACIA BJS,,464111,Farmacias sin minisúper,0 a 5 personas,5 DE MAYO,18 DE MARZO,71,30040,7,Chiapas,19,Comitán de Domínguez,1,Comitán de Domínguez,362,6,16.23248477,-92.12401282,2024-11,9611973174,GONZALEZ_BERNARDO@HOTMAIL.COM,,FALSE,FALSE,FALSE,No GSV within radius,Oscar ,TRUE,FALSE,INDEPENDENT,,,,
